지역,매장명,주소,위도,경도
서울,역삼점,서울 강남구 논현로72길 13 1층(역삼동),37.4958440607421,127.040532805045
서울,강남원에디션점,서울 강남구 언주로 563,37.5079337330229,127.038168392484
서울,강남행복병원점,"서울 강남구 헌릉로590길 60 (세곡동, 강남구립 행복요양병원) 1F",37.4611766303736,127.10332264232
서울,강남나누리병원점,서울 강남구 언주로149길 5 (논현동) 1F,37.5205092341033,127.033694770592
서울,학동제마점,서울 강남구 학동로34길 22 (논현동),37.5131174134101,127.033652198273
서울,삼성대치점,"서울 강남구 삼성로64길 32 (대치동, 주성빌딩) 1층",37.5003851860407,127.063023470075
서울,강남대치점,"서울 강남구 역삼로 415 (대치동, 성진빌딩) 1층",37.5012890411822,127.052395659668
서울,강남율현점,"서울 강남구 밤고개로21길 8 (율현동, 세곡프라자) 지상1층 104,105호",37.4735487656314,127.107863694133
서울,한티역점,서울 강남구 도곡로69길 8 (대치동) 1층,37.4979490135961,127.056118735013
서울,청담역점,"서울 강남구 삼성로 721 (청담동, 룩희 819) 1층",37.5200643058897,127.049146860404
서울,강남구청역아이티웨딩점,"서울 강남구 학동로 338 (논현동, 강남파라곤) 이디야커피",37.5165402749359,127.04016223452
서울,학동역점,"서울 강남구 학동로 219 (논현동, 국제빌딩) 2층",37.5149944434401,127.033126051166
서울,강남논현학동점,서울 강남구 논현로131길 28 1층,37.5140808650413,127.028107144711
서울,강남도산점,서울 강남구 도산대로37길 20 1층(신사동),37.5222784215718,127.031487626912
서울,[하단 유의사항 확인2],서울 강남구 논현로 636,37.51047621899,127.032979505594
서울,을지병원사거리점,서울 강남구 도산대로30길 7 1층(논현동),37.5193954737507,127.029425389395
서울,삼성한전점,서울 강남구 테헤란로 107길 11(삼성동 169-10),37.5104297492841,127.065059101392
서울,역삼중앙점,서울특별시 강남구 언주로81길 8,37.5003535799397,127.042879601261
서울,도산사거리점,서울특별시 강남구 언주로148길 14 나동 1층 107호,37.5206301397046,127.036162554013
서울,대청역점,서울특별시 강남구 개포로109길 34,37.4942045850869,127.077648338611
서울,개포동역점,서울특별시 강남구 개포로82길 11,37.4885582921416,127.067443820505
서울,일원동점,서울특별시 강남구 양재대로27길 20,37.4904079402405,127.081630306699
서울,역삼충현점,서울 강남구 역삼동  667-18,37.5037882474823,127.036329387683
서울,강남YMCA점,서울 강남구 논현동  봉은사로37길 29 뜨레빌빌라 101호,37.5099426623488,127.035705883792
서울,청담사거리점,서울 강남구 청담동  125-22,37.5248672143657,127.050373028436
서울,신사역점,서울 강남구 신사동  512-10 대성빌딩1층,37.5175392751358,127.02018590454
서울,도곡2동점,서울 강남구 도곡동  518-10번지 1층,37.4824241958937,127.043039286912
서울,역삼역점,서울 강남구 역삼동  643-10,37.501811599578,127.035210851366
서울,역삼플래티넘점,서울 강남구 역삼동 826-37 쌍용플래티넘상가 B-108,37.495399931601,127.030405784953
서울,역삼월드점,서울 강남구 역삼동 754-2 도곡프라자 102,37.4985294364015,127.047948718425
서울,삼성동점,서울 강남구 테헤란로88길 10 101호,37.5068423754133,127.059463196738
서울,길동사거리점,서울 강동구 천호대로 1132 1층 101-103호(성내동),37.5340717110259,127.136981871571
서울,천호중흥S클래스점,서울 강동구 천호동 423-200,37.5414366890331,127.126961242845
서울,암사상암로점,서울 강동구 상암로 55 1층,37.5494244486092,127.129490429887
서울,둔촌오륜포레온점,"서울 강동구 양재대로 1300 (둔촌동, 올림픽파크포레온) 포레온스테이션 나인 144호",37.5249677176279,127.140290598327
서울,강일점,"서울 강동구 아리수로93길 19 (강일동, 임페리얼타워) 1층",37.5653806615841,127.174117962328
서울,강동성내점,서울 강동구 풍성로 162 (성내동) 1층,37.5305040538801,127.129853009462
서울,강동고덕교차로점,"서울 강동구 고덕로 421 (강일동, 대한연세요양원) 1층",37.5574052401914,127.172575598882
서울,명일역점,"서울 강동구 구천면로 424 (명일동, 명일메가타운)",37.5503498644145,127.145579195087
서울,천호중앙점,"서울 강동구 올림픽로 660 (천호동, 천호엘크루주상복합) 1층 105호",37.540169637196,127.124570380688
서울,고덕그라시움후문점,서울 강동구 동남로82길 121 (고덕동) 1층,37.5603957646344,127.163698036337
서울,강동구청점,서울 강동구 성내동 556-2,37.5290239750807,127.122346987114
서울,암사중앙점,서울 강동구 암사길 50 근린생활시설동 105호(암사동),37.5513635720856,127.134728442286
서울,천호초교사거리점,서울특별시 강동구 구천면로 304,37.5467270340876,127.134809493652
서울,명일중앙점,서울특별시 강동구 상암로 210 (명일동),37.5462992589271,127.145789262651
서울,보훈병원점,서울 강동구 둔촌동  556 암펠로스타워 1층,37.5288639108014,127.143075086168
서울,길동역점,서울 강동구 길동  양재대로 1471번지 동선빌딩 1층,37.5373607499164,127.139268457231
서울,강동역점,서울 강동구 천호동 450번지 강동상떼빌 제엘106호,37.5370222391811,127.130435922027
서울,둔촌점,서울 강동구 양재대로 1377 1층 9호,37.5292227276953,127.136262071919
서울,천호현대점,서울 강동구 천호동 432-2,37.5410292788982,127.123715027772
서울,미아역점,서울 강북구 미아동  207-3,37.6271106098073,127.025439382454
서울,수유역점,서울 강북구 수유동  191-2,37.6393922863843,127.026752304465
서울,가오리역점,서울 강북구 삼각산로 108 1층,37.6406008108564,127.016163948133
서울,번동점,서울 강북구 번동  309,37.6288125342481,127.039898917171
서울,한신대점,서울 강북구 덕릉로 31 수유동 이디야커피 1층,37.6343160541282,127.016985885932
서울,미아중앙점,"서울특별시 강북구 도봉로 128 (미아동, 1층)",37.6204657886777,127.028755869816
서울,북한산점,서울 강북구 4.19로 85 1층,37.6447955068975,127.005595867384
서울,미아꿈의숲해링턴점,"서울 강북구 오현로 45 (미아동, 꿈의숲 해링턴 플레이스) 상가1층",37.6169370292441,127.034610388171
서울,미아트리베라점,"서울 강북구 삼양로19길 25 (미아동, 삼성래미안트리베라1차아파트) 지하 1층 107동 1-1호",37.6156943247238,127.021139026425
서울,염창대로점,서울 강서구 염창동 262,37.5488204952569,126.876294728981
서울,방화역점,"서울 강서구 금낭화로 145 (방화동, 에어뷰21-1오피스텔) 126호",37.5783009851923,126.812798304593
서울,등촌3동성당점,"서울 강서구 강서로56길 110 (등촌동, SJC빌딩) 이디야 등촌3동성당점",37.5588989867375,126.844878507014
서울,개화산점,"서울 강서구 양천로 28 (방화동, 벽산에어트리움) 본관동1층",37.5723030060453,126.806994113323
서울,예원문화센터점,"서울 강서구 화곡로63길 65 (등촌동, 예원교회) 2층",37.5579738421304,126.849189076142
서울,화곡본동시장점,서울 강서구 까치산로4길 11 (화곡동) 1층,37.5422274684945,126.844262083668
서울,마곡헤리움점,"서울 강서구 마곡중앙5로1길 25 (마곡동, 마곡헤리움2차) 1층 108호",37.5692420716795,126.826138036672
서울,마곡파인스퀘어점,"서울 강서구 마곡중앙4로 22 (마곡동, 파인스퀘어) 1층 124,125,126호",37.5582829549403,126.829009917866
서울,까치산로점,"서울 강서구 까치산로 182 101호, 102호",37.553313221654,126.853891289928
서울,방화동로점,서울 강서구 방화동로 95 1층(방화동   580-130번지),37.5690161610357,126.812631152778
서울,강서구청점,서울 강서구 화곡동  981-1,37.5503031171874,126.848769072181
서울,우장산동점,"서울 강서구 우현로 15 102~103호(화곡동, 우장산빌딩)",37.5471679730925,126.843625687446
서울,화곡로점,서울 강서구 화곡3동  1067-20 2층,37.5408596801842,126.83647718475
서울,방화사거리점,서울특별시 강서구 양천로 72  106호,37.5732116324409,126.811777075121
서울,강서NC점,서울 강서구 등촌동  674-2,37.5593359570029,126.839277837374
서울,강서한강자이점,서울 강서구 가양동  52-7 강서한강자이타워 B동 108-2,37.5678839,126.8498488
서울,공항시장역점,서울특별시 강서구 방화동로 37-0 (방화동 메디스 타워 ),37.5641822785808,126.810682079138
서울,염창동점,서울 강서구 염창동  264-37,37.5506391280468,126.871954635693
서울,등촌역점,서울 강서구 등촌동  등촌로 217,37.5491824406556,126.863315147109
서울,화곡사거리점,서울 강서구 화곡동  342-53,37.5307877471735,126.847927380313
서울,봉천역점,서울 관악구 봉천동  931-4,37.4826781385874,126.941894404176
서울,신림미성점,서울 관악구 신림동  난곡로 250,37.4765402893322,126.915984298817
서울,신대방역점,서울특별시 관악구 난곡로 368 (신림동 송암빌딩 ) 송암빌딩2층,37.4868566719231,126.913752282818
서울,녹두거리점,서울특별시 관악구 신림로 91 1층,37.4703086452623,126.939065988966
서울,봉일시장점,서울특별시 관악구 은천로 23,37.4864072865821,126.937927086846
서울,관악하나로마트점,서울 관악구 남부순환로 1369 1층(신림동),37.4801331328431,126.902907755863
서울,난곡사거리점,서울 관악구 남부순환로 1444 1층,37.4809279906563,126.911256043771
서울,신림패션문화점,서울 관악구 봉천로6길 24 1층(신림동),37.488621134755,126.925430749958
서울,남현홈플러스점,서울 관악구 과천대로 909 홈플러스서울남현점 1층,37.4714704021418,126.982466468514
서울,청룡중앙점,서울특별시 관악구 쑥고개로 80 (봉천동) 1층,37.4792117658952,126.945267468435
서울,신림대학동점,서울 관악구 호암로26길 17 (신림동) 1층,37.4707490184504,126.934607229207
서울,신림역점,서울 관악구 신림로 312 (신림동) 1층 좌측호,37.4821884771875,126.93014846789
서울,신림문화교점,서울 관악구 신림동 92-32 (서원동성당),37.4784655538241,126.933507017046
서울,봉천현대시장점,서울 관악구 봉천동 899-31,37.4857194380108,126.94674979265
서울,관악산으뜸점,서울 관악구 신림로 21 (신림동) 으뜸공원휴게소 2층,37.4684727257098,126.944897173087
서울,관악인헌점,서울 관악구 인헌길 74 (봉천동) 1층,37.4722167110499,126.966591903588
서울,건대역점,서울 광진구 화양동 7-3 한림타워 101호,37.540816040886,127.069031304229
서울,군자역점,"서울 광진구 능동로 290 (능동, 삼일빌딩) 1층 105호",37.5555832993412,127.078979184085
서울,아차산역점,서울 광진구 구의동  663,37.547855981863,127.09307529677
서울,자양동점,서울 광진구 자양동  681-15,37.5322385671945,127.085979201677
서울,자양우성점,서울특별시 광진구 자양번영로 34 (자양동 제이원하이텔 ),37.5327019732956,127.075820421522
서울,동서울터미널점,서울 광진구 구의동  547 강변현대하이엘 109호,37.534151371835,127.09221581351
서울,세종대후문점,서울 광진구 군자동  102-1,37.5528730608242,127.071991392913
서울,중곡대원점,서울특별시 광진구 용마산로 111,37.5635945424938,127.086643404936
서울,건대스타시티점,"서울 광진구 아차산로 272 1층 5호(자양동, 더샵스타시티 1층)",37.5385582736952,127.072996184863
서울,건대스타시티2호점,"서울 광진구 능동로 92 201호(자양동, 스타시티몰 지하2층)",37.5390373908314,127.071432147214
서울,구의자양로점,서울 광진구 자양로 251 (구의동) 1층,37.5489991036635,127.089309502858
서울,중곡신성점,"서울 광진구 용마산로 37 (중곡동, 이안빌딩) 1층",37.557021695282,127.087723525693
서울,자양사거리점,서울 광진구 자양로 81 1층 103호,37.5351324957877,127.083842770754
서울,혜민병원점,"서울 광진구 자양로 85 (자양동, 혜민병원) 1층",37.5354377087993,127.083398686427
서울,자양문원점,서울 광진구 아차산로 345 1F,37.5375052411306,127.08158295574
서울,구로이마트점,서울 구로구 구로동 188-26,37.4843488937857,126.897921857206
서울,신도림테크노마트점,서울 구로구 구로동  3-25,37.5069739187173,126.890319120085
서울,개봉현대점,서울 구로구 개봉로 69 2층(개봉동),37.4919033153723,126.85561013455
서울,남구로역점,서울 구로구 디지털로27길 127 (가리봉동) 1층,37.4847108131575,126.887109265789
서울,구로NC점,서울특별시 구로구 구로동로 240,37.5000087655668,126.88269870264
서울,구로미성점,서울특별시 구로구 구로중앙로 228 1층 106~108호,37.506167775395,126.876605252712
서울,구로코레일점,서울특별시 구로구 구로중앙로 174,37.5024345090279,126.881491595821
서울,성공회대점,서울 구로구 연동로 312 2층 201호,37.4877304207618,126.824364209502
서울,고척스카이돔점,서울 구로구 경인로 397 별관동 지상1층 101호,37.4976995650402,126.863870881484
서울,고척사거리점,"서울 구로구 고척로 228-6 1층 (고척동, 종만빌딩)",37.5057871324878,126.85824878572
서울,신도림메르디앙점,서울특별시 구로구 신도림로 65 (신도림동) 신도림월드메르디앙오피스텔 1층 101호,37.509567497413,126.882036112811
서울,개봉역점,서울 구로구 남부순환로97길 11 (개봉동) 2층,37.4942567601283,126.858377329092
서울,구로역광장점,"서울 구로구 경인로 572 (구로동, 스타팰리스) 109호,110호",37.5033062723055,126.881083869229
서울,구로구청점,"서울 구로구 가마산로25길 9 (구로동, 네오팰리스)",37.4966251468796,126.890315032666
서울,구로하버라인점,"서울 구로구 항동로3길 6 (항동, 가온 프라자) 1층 102,103호",37.4808405838883,126.824294637379
서울,구일역점,서울 구로구 구일로 110 1층,37.4950748401596,126.87200783297
서울,독산동점,서울 금천구 독산로 218 창영빌딩 1층,37.4663579296014,126.902005888784
서울,시흥동점,서울특별시 금천구 시흥동  890-10 전첨빌딩   1층,37.4522900589632,126.901885345556
서울,가산월드점,서울 금천구 가산동  426-5 월드메르디앙벤처 2차 101호,37.478757192413,126.878716916891
서울,시흥중앙점,서울 금천구 시흥동  1011 관악우방아파트  상가 105호,37.4493778208533,126.913439789898
서울,은행나무사거리점,서울특별시 금천구 금하로 690 (시흥동) 1층,37.45180077956,126.906631793465
서울,가산두산위브점,서울특별시 금천구 가산로 111 103호,37.4756196441839,126.892926734418
서울,세광교회점,서울 금천구 독산로 124 (시흥동),37.4583414293405,126.905521424788
서울,가산리더스타워점,서울 금천구 가산동 60-15 삼성리더스타워 지하1층,37.4803571157404,126.884197173231
서울,박미삼거리점,서울 금천구 시흥대로 150 지상1층(시흥동),37.4476250836631,126.90366423687
서울,시흥유통센터점,"서울 금천구 시흥대로 88 1층(시흥동, 오복빌딩)",37.4418896970511,126.903909572546
서울,가산오거리점,"서울 금천구 가산로 155 (가산동, 케이디에스빌딩) 지상1,2층",37.4788595120999,126.890101661398
서울,독산동쌈지공원점,서울 금천구 독산로 276 (독산동) 102호,37.4713521158292,126.903287759237
서울,석수푸르지오점,"서울 금천구 삼성산길 11 (시흥동, 위너스타워) 101호",37.4341080949544,126.904820619517
서울,서서울미술관점,서울 금천구 시흥대로79길 65,37.4577462883391,126.895539272251
서울,태릉입구역점,서울 노원구 공릉동  633-17,37.6196191189831,127.077849490596
서울,육군사관학교점,서울 노원구 화랑로 574 (공릉동) 육군사관학교 행정안내소,37.6149432,127.0654939
서울,상계상록스토아점,"서울 노원구 동일로227길 26 (상계동, 상계주공15단지아파트) 상가동 지하1층, 지상1층",37.6701880464645,127.054677638301
서울,월계이마트점,"서울 노원구 마들로3길 15 (월계동, 월계이마트) 이마트 더타운몰 월계점 2층 아크앤북 이디야커피",37.6265093604229,127.061979778612
서울,월계인덕점,"서울 노원구 광운로22길 39 1층(월계동, ID시티)",37.6298501245091,127.058818019772
서울,중계본동점,서울특별시 노원구 중계로14바길 2,37.6498801772267,127.082582114688
서울,중계롯데우성점,서울 노원구 중계동  361-1,37.6468291149362,127.072828819069
서울,당고개역점,서울특별시 노원구 상계로 313 (상계동  ) 1층,37.6708076278789,127.080369958013
서울,상계중앙점,서울 노원구 동일로 1650 (상계동) 1~2층,37.6754838685069,127.055546879508
서울,광운대점,서울 노원구 월계동 465-10,37.6203306733769,127.058423696808
서울,공릉역점,서울 노원구 공릉동  386-6번지 1층,37.6262170742682,127.073306458241
서울,원자력병원점,서울 노원구 공릉동  421-19 102호,37.6268788964919,127.079494773049
서울,수락산역점,서울 노원구 상계동  하이베라스 133호 (동일로 1689),37.66727,127.07242
서울,상계동점,서울 노원구 상계동  456-132,37.6648836912086,127.06645978682
서울,상계역점,서울 노원구 중계동  광현빌딩 1층,37.6509815,127.0810259
서울,서울여대점,서울 노원구 공릉동  90-4 우토파크프라자 105호,37.6214491190448,127.085148465261
서울,중계점,서울 노원구 동일로204가길 34 103호,37.6407495352012,127.068172151465
서울,창동역점,서울 도봉구 창동 13번지 103호,37.6533846009574,127.049710658595
서울,덕성여대점,서울 도봉구 삼양로 542 1층(쌍문동),37.6516216780529,127.012971416471
서울,방학점,서울 도봉구 방학동  670,37.6621568530952,127.033250269639
서울,쌍문역점,서울 도봉구 쌍문동  88-20,37.6494456458646,127.034708415831
서울,창동학원가점,서울 도봉구 창동  해동로16길 61 1층,37.6534371,127.0488204
서울,신창점,서울 도봉구 창동  578-146,37.6389354320852,127.038098669894
서울,방학역점,서울 도봉구 방학동  652-21,37.6698346348421,127.042550741988
서울,선덕고사거리점,"서울 도봉구 쌍문동  256 에벤에셀 101동 209,225호",37.657368090442,127.028238361724
서울,쌍문동점,서울 도봉구 노해로 162 (쌍문동) 1층,37.6488357345433,127.02730254917
서울,도봉산점,서울 도봉구 도봉산길 18 (도봉동) 1층,37.6875596911354,127.043749364109
서울,창동제일점,서울 도봉구 노해로70길 81 (창동) 1층 101호,37.6488484451094,127.052567817039
서울,창동하나로마트점,"서울 도봉구 마들로11길 20 (창동, 농협창동유통센타) 1층",37.655110585923,127.050831341385
서울,창동대우점,서울 도봉구 덕릉로63가길 30 (창동) 1층,37.643486094098,127.038745142976
서울,솔밭공원역점,"서울 도봉구 삼양로 594 (쌍문동, 주함해븐빌) C-1동 1층 101호",37.6560582306343,127.013556949839
서울,경희대캠퍼스점,서울 동대문구 경희대로 26 1층 호텔관광대학(회기동),37.5939491407769,127.054890960564
서울,청량리역점,"서울 동대문구 고산자로34길 70 (용두동, 청량리역 해링턴플레이스)",37.5782923121696,127.042196782039
서울,답십리점,"서울 동대문구 사가정로 6 (답십리동, 청계G well estates) 1층 101호",37.5701769955012,127.049533732451
서울,신설동역점,서울 동대문구 천호대로 11-3 (신설동) 1층,37.5750661619472,127.024947007152
서울,답십리사거리점,"서울 동대문구 답십리로 145 (답십리동) 1층,2층",37.5730704793412,127.056115399363
서울,장안중랑천점,서울 동대문구 장한로18길 32 (장안동) 1층,37.5675373374578,127.070775789879
서울,장한평군자초교점,서울 동대문구 한천로2길 53 (장안동) 1층,37.5628367694104,127.061408380128
서울,답십리파크자이점,"서울 동대문구 한천로 55 (답십리동, 영진빌딩) 1층",37.5669101962131,127.061880899304
서울,이문점,서울 동대문구 신이문로 19 1층(이문동),37.6031419104525,127.064253948955
서울,청량리점,서울 동대문구 왕산로 225 미주상가 1층 10호,37.5821227010138,127.047209103701
서울,장안중앙점,서울특별시 동대문구 사가정로25길 42 (장안동 영림빌딩) 1층,37.5806820979802,127.070975935766
서울,촬영소사거리점,서울특별시 동대문구 답십리로 264,37.5722815601428,127.069508490646
서울,배봉초교사거리점,서울특별시 동대문구 답십리로63길 131,37.5785099656673,127.069336090359
서울,용두동점,서울 동대문구 용두동  40-1,37.5766581827184,127.037938429492
서울,장안동사거리점,서울 동대문구 장안동  331-4,37.5723883024067,127.074855316619
서울,전농사거리점,서울 동대문구 전농동  39-9 1층 (사가정로 132),37.577535647958,127.05956816025
서울,회기역중앙점,서울 동대문구 회기로 193 1층,37.5901851144732,127.057441553909
서울,경희대점,서울 동대문구 회기동  16-55 2층,37.5918949642804,127.052526485934
서울,남성역점,서울특별시 동작구 사당로17가길 13,37.4838120946482,126.973425490717
서울,노량진한성빌딩점,서울 동작구 만양로 105 한성빌딩 1층 110호,37.5128549427149,126.944007081257
서울,상도파크엘점,"서울 동작구 양녕로 220 (상도동, 상도역 롯데캐슬 파크엘) 1층",37.5006923608129,126.945536442321
서울,흑석역점,서울 동작구 현충로 100-1 (흑석동),37.5076446931125,126.964738341052
서울,노량진드림스퀘어점,"서울 동작구 노들로2길 7 (노량진동, 노량진 드림스퀘어 복합빌딩) 1층 씨113호",37.5141942939247,126.938586139882
서울,상도중앙점,"서울 동작구 만양로 17 (상도동) 1층 101,102호",37.5062920350335,126.947156929982
서울,노량진역사점,"서울 동작구 노량진로 지하 130 (노량진동, 9호선 노량진역) 이디야커피",37.5135735646312,126.940826454376
서울,총신대점,"서울 동작구 사당로16가길 96 1,2층",37.485107611205,126.968823424325
서울,사당역점,서울 동작구 동작대로7길 100 1층(사당동),37.4771585444473,126.977532880864
서울,중앙대점,서울 동작구 흑석동 195-19,37.5070505838749,126.958409191217
서울,해군회관점,서울특별시 동작구 여의대방로 194,37.5042619165854,126.922263210314
서울,중앙대후문점,서울특별시 동작구 흑석로 20 (상도동  ) 1층,37.5048307436215,126.9530308556
서울,상도역점,서울 동작구 상도동  753,37.4988159,126.9441045
서울,대방역점,서울특별시 동작구 노량진로 24-0 (대방동 한신빌딩 ) 대방동,37.512908651342,126.928348559799
서울,보라매공원점,서울 동작구 신대방동  498-2,37.4968172358703,126.916668141819
서울,노들점,"서울 동작구 노량진로 200 (노량진동,베스트고시텔)1층",37.5129025942598,126.947920845817
서울,보라매점,서울 동작구 보라매로5가길 16 보라매아카데미 1층,37.4912751024086,126.924094714271
서울,노량진CTS점,서울 동작구 노량진동  41-5건설상가102호,37.5132002829995,126.938023782087
서울,성산점,서울 마포구 월드컵북로 137 1층 일부(성산동),37.5648258493667,126.91166211022
서울,광흥창역점,서울 마포구 서강로 46 1층 일호,37.5471520550055,126.931600627596
서울,마포성산시영점,서울 마포구 월드컵북로 210 (성산동) 1층,37.5692205219891,126.905804329554
서울,망리단길점,"서울 마포구 포은로 81-1 (망원동, S-빌딩) 1층",37.5543135567568,126.905265725284
서울,공덕롯데캐슬점,"서울 마포구 마포대로 109 (공덕동, 롯데캐슬프레지던트) 지1층 8120호",37.5450686146253,126.950847479316
서울,마포공덕역점,"서울 마포구 새창로 6 (도화동) 102, 202호",37.5420365203339,126.950509218628
서울,합정역사거리점,서울특별시 마포구 독막로2길 5 (합정동) 1층,37.5482582573584,126.914898987448
서울,합정홈플러스점,서울 마포구 양화로 45 지하 2층,37.5515008030203,126.91395024016
서울,상암홈플러스점,서울 마포구 성산동 515,37.5682884450841,126.897273034482
서울,마포점,서울 마포구 도화동  250-1,37.5397886030636,126.947354167926
서울,합정동점,서울특별시 마포구 양화로6길 90,37.5482353406882,126.919083986241
서울,오벨리스크점,서울특별시 마포구 도화동  555  한화오벨리스크 1층 103,37.5400400282506,126.945470495343
서울,망원중앙점,서울특별시 마포구 월드컵로 147 1층 (망원동),37.5607966710773,126.905478560614
서울,홍대청기와점,서울특별시 마포구 월드컵북로 7,37.5556111696904,126.920661686736
서울,합정LIG점,서울 마포구 합정동  392-3,37.5495355681974,126.910347195305
서울,상암한샘점,서울 마포구 상암동  1522 1층,37.5756992502769,126.897726538426
서울,망원역점,서울 마포구 서교동  441-11,37.5563769271118,126.910219374041
서울,명지대점,서울 서대문구 남가좌동  거북골로 35,37.5793644567594,126.923916395533
서울,서대문점,서울 서대문구 냉천동  248 1층,37.5669328249643,126.965225656655
서울,신촌기차역점,서울 서대문구 창천동  4-1 1층,37.5589557471661,126.941471127288
서울,신촌역점,서울특별시 서대문구 신촌로 87-20 (창천동  ),37.5565111834994,126.936458823099
서울,연남동점,서울특별시 서대문구 연희로 42 (연희동) 1층,37.5623685801819,126.927862179186
서울,가재울중앙점,서울특별시 서대문구 가재울미래로2 101동 105호,37.5744019902031,126.917907814167
서울,홍은사거리점,서울특별시 서대문구 통일로 510(홍은동) 일원 북한산 더샵 단지 내 상가 110호,37.594570187466,126.941167410528
서울,서대문구청점,서울 서대문구 연희로 237 (연희동) 1층,37.5782396270709,126.93568571991
서울,연희홍연길점,서울 서대문구 연희동 717-7 1층,37.5763748711388,126.930038167646
서울,아현역점,"서울 서대문구 신촌로37길 10 (북아현동, 아현 메디컬) 1층",37.5576654886412,126.957137829236
서울,연세의료원의과대학점,"서울 서대문구 연세로 50-1 (신촌동, 세브란스병원)",37.563674036531,126.941917689273
서울,연세의료원ABMRC점,"서울 서대문구 연세로 50-1 (신촌동, 세브란스병원)",37.563674036531,126.941917689273
서울,연세의료원제중관점,"서울 서대문구 연세로 50-1 (신촌동, 세브란스병원)",37.563674036531,126.941917689273
서울,연세의료원종합관점,"서울 서대문구 연세로 50-1 (신촌동, 세브란스병원)",37.563674036531,126.941917689273
서울,서울간호대점,서울 서대문구 간호대로 8 (홍제동) 이디야커피(서울간호대점),37.5967035099632,126.94880303275
서울,우면동점,서울 서초구 바우뫼로 20 1층(우면동),37.46994898856,127.025305086983
서울,로얄마리나한강점,서울 서초구 한강남자전거길 2351,37.5192603044676,127.007842970729
서울,강남역르피에드점,"서울 서초구 서운로 136 108, 109호",37.4956189258907,127.025219660672
서울,신논현역점,"서울 서초구 서초대로77길 55 (서초동, 에이프로 스퀘어) 101,102호",37.5021008334827,127.024465815419
서울,삼성금융연수원점,"서울 서초구 사임당로23길 27 (서초동, 서초 금융 캠퍼스) 삼성금융캠퍼스 1층",37.4919112408044,127.020286655293
서울,국립국악원점,"서울 서초구 남부순환로 2364 (서초동, 국립국악원) 1층",37.4777188083482,127.009818464555
서울,신사멀버리힐스점,서울 서초구 잠원동 27-2 신사멀버리힐스 104호,37.5143885476778,127.01915008726
서울,국립중앙도서관디지털관점,서울 서초구 반포동 산 60-1 (국립중앙도서관) 본관 및 디지털도서관,37.4973931284854,127.003388951961
서울,국립중앙도서관본관점,서울 서초구 반포동 산 60-1 (국립중앙도서관) 본관 및 디지털도서관 1,37.4973931284854,127.003388951961
서울,강남센트럴시티점,"서울 서초구 신반포로 176 (반포동, 센트럴시티) 1층 104호",37.5039351769908,127.002413006799
서울,서울고속버스터미널점,"서울 서초구 신반포로 194 (반포동, 강남고속버스터미널) 1,2층 21호",37.5064357442307,127.006834366246
서울,서초우면중앙점,"서울 서초구 양재대로2길 100-11 (우면동, 서초 리슈빌S) 1층 103,104호",37.4564477478347,127.016254660862
서울,양재하나로마트점,서울 서초구 청계산로 10 1층,37.4632288044056,127.043530153585
서울,방배역점,서울 서초구 방배동 910-9,37.482179531164,126.996886364723
서울,방배중앙점,서울특별시 서초구 동광로 1 (방배동 대양빌딩),37.4910714836313,126.983025685547
서울,함지박사거리점,서울특별시 서초구 방배로 234 (방배동 우신빌딩 ) 102,37.4941611953765,126.989910590285
서울,서울교대점,서울 서초구 서초동  1577-11,37.4897671130809,127.014095602672
서울,예술의전당점,서울특별시 서초구 반포대로 32,37.4834385607122,127.012120757084
서울,남부터미널점,서울 서초구 서초동  1444-2,37.4847547696244,127.018871387144
서울,양재중앙점,서울 서초구 양재동  23 111호,37.4833930904418,127.034393681235
서울,반포지하상가점,서울 서초구 신반포로 지하 200 도로지하 G-032호,37.5062203134857,127.005051680109
서울,내방역점,서울 서초구 방배동  898-1,37.4875380923576,126.994301343096
서울,교대역점,서울 서초구 서초동  1669-15,37.4934890448531,127.017123674583
서울,서초점,서울 서초구 서초3동  서초대로48길 16      (1555-17번지) 1층,37.4920545290117,127.011320881073
서울,양재점,서울 서초구 남부순환로347길 38  1층,37.4860263770271,127.031487443707
서울,잠원논현점,서울 서초구 잠원동  38-26,37.5109192586872,127.020069318938
서울,성수아카데미점,서울 성동구 성수동2가  277-17성수아카데미타워,37.5451717293504,127.057815950341
서울,왕십리역점,서울 성동구 행당동  287-15,37.5611984824567,127.034609827664
서울,옥수동점,서울 성동구 옥수동  매봉길 12,37.5452980059274,127.015693205964
서울,성수우리W타워점,"서울 성동구 아차산로15길 19 1층(성수동2가, 우리W타워)",37.5447507856542,127.062069655934
서울,마장동점,서울 성동구 마장동  478-38,37.5700200164451,127.037362633059
서울,신금호역점,서울특별시 성동구 금호산길 64 (금호동2가),37.5539034830016,127.019640378475
서울,마장역점,서울특별시 성동구 마장로 293-1,37.5659440041462,127.042171365841
서울,상왕십리역점,서울특별시 성동구 무학봉15길 27 1층(하왕십리동),37.5637091555598,127.030171840031
서울,왕십리센트라스점,서울 성동구 무학로 22 1층,37.566082525209,127.0303063608
서울,텐즈힐점,"서울 성동구 무학로 33 153동 102호(하왕십리동, 텐즈힐)",37.5691641596929,127.02634785313
서울,왕십리비트플렉스점,서울 성동구 왕십리광장로 17 지상2층,37.5614417528647,127.038394194396
서울,답십리로데오점,서울 성동구 용답중앙15길 8 (용답동) 1층,37.5641084405355,127.053432156481
서울,한양대생활과학관점,"서울 성동구 왕십리로 222 (사근동, 한양대학교) 서울캠퍼스(생활과학관 7층)",37.5545036393023,127.046611216845
서울,서울숲리버포레점,"서울 성동구 왕십리로 137 (성수동1가, 서울숲아이파크리버포레)",37.5501670203702,127.04361144463
서울,성신여대점,서울 성북구 동선동2가  305번지,37.5912042092174,127.020791056551
서울,동덕여대점,서울 성북구 장월로1길 60,37.6060849311554,127.044908733601
서울,고대타이거프라자점,"서울 성북구 안암로 145 (안암동5가, 고려대학교안암캠퍼스) 2층",37.5887034223667,127.031698331241
서울,안암래미안점,서울 성북구 안암동1가 190 1층 이디야커피,37.5890006095203,127.022020510653
서울,장위뉴타운점,서울 성북구 장월로 144-1 (장위동) 1층,37.6177097892253,127.051043731077
서울,성신여대역점,서울 성북구 동소문로17길 40 (동소문동6가) 1층,37.5939295699321,127.015893755022
서울,석관동점,"서울 성북구 돌곶이로8길 22 (석관동, 래미안아트리치) 301동 1층 109호",37.6065244839458,127.062261154976
서울,하월곡동점,서울특별시 성북구 오패산로 16 1층 (하월곡동),37.6036686229465,127.037521806164
서울,보문역점,서울특별시 성북구 보문로 111,37.5849398539909,127.019340463549
서울,장위동점,"서울 성북구 월계로40길 7 104호(장위동,센트럴타운)",37.6229729783825,127.048309344122
서울,한성대점,서울 성북구 삼선교로10길 45 1층,37.5861829422572,127.010016222727
서울,정릉중앙점,서울 성북구 정릉2동  161-17,37.6047103897151,127.011968043362
서울,고대개운점,서울 성북구 안암동5가  15-57번지,37.5876916530074,127.029435723486
서울,석계중앙점,서울 성북구 석관동  168-2,37.6137966316073,127.064946876308
서울,돌곶이역점,서울 성북구 석관동  246-10,37.6102075065924,127.058102963278
서울,길음뉴타운점,서울특별시 성북구 길음로 74-0 (길음동 길음뉴타운 ) 길음뉴타운상가 102,37.6092895738067,127.02103392513
서울,종암동점,서울 성북구 종암동  87-4,37.5995979575784,127.03391679852
서울,월곡1동점,서울 성북구 하월곡동  79-19,37.6107623095819,127.035132360018
서울,고대점,서울 성북구 안암동5가  103-101,37.5842382869341,127.029596943178
서울,송파위례점,"서울 송파구 위례광장로 188 135호, 136호",37.481085538274,127.142394775398
서울,서울한방병원점,"서울 송파구 법원로11길 32 (문정동, 혜화복합시설) 이디야커피(서울한방병원점)",37.4855010122778,127.115853505576
서울,삼전중앙점,서울 송파구 삼전동 100-5,37.5036940440389,127.092567839509
서울,서울삼성내과점,"서울 송파구 백제고분로 126 (잠실동, 오룡빌딩) 1층 103호, 104호",37.5061702039866,127.08075330646
서울,위례포레샤인점,"서울 송파구 위례순환로 477 (장지동, 위례포레샤인23단지) 근린생활시설2동 1층 101호, 102호",37.4751100001573,127.136558093148
서울,송파올림픽훼미리타운점,"서울 송파구 중대로 24 (문정동, 올림픽훼밀리타운) 상가동 1층 120호, 121호",37.4881292540693,127.111066039437
서울,송파문정점,서울 송파구 송이로 159 (가락동) 1층 101호,37.4929585994279,127.125346805693
서울,방이초교점,서울 송파구 가락로 280 (방이동) 1층 102호,37.5127330893982,127.120016251041
서울,송파풍납점,서울특별시 송파구 강동대로9길 17-1 1층,37.5280970384524,127.11654304801
서울,석촌백제점,서울 송파구 석촌동  백제고분로39길 15 (삼경빌딩) 1층 101호,37.5056617466954,127.104455184706
서울,올림픽공원점,서울 송파구 방이동 35-4 아이스페이스잠실2 105,37.516110216748,127.109553536194
서울,가락중앙점,서울 송파구 송이로 87 1층(가락동),37.4983419879792,127.120795228829
서울,오금중앙점,서울 송파구 위례성대로22길 18 1층(오금동),37.5086858136158,127.13035617547
서울,가든파이브테크노관점,"서울 송파구 충민로 66 (문정동, 가든파이브라이프) T-3143호",37.4776148442516,127.124961768886
서울,가락몰점,서울특별시 송파구 양재대로 932,37.4945376921828,127.108713599026
서울,잠실본동점,서울특별시 송파구 백제고분로 172 (잠실동) 1층,37.5047208554957,127.085852293902
서울,방이역점,서울 송파구 방이동  208-6,37.5095763260898,127.124718698232
서울,잠실역점,서울 송파구 잠실동  27,37.5143684588228,127.09298211452
서울,거여점,서울 송파구 거여동 26-2 1층,37.4935041722916,127.144210662685
서울,목동파라곤점,서울 양천구 목동 917 목동파라곤 지하1층,37.5295042161977,126.875163391823
서울,신정네거리역점,서울 양천구 신정동  972-4,37.5215819819325,126.852646515291
서울,목3동점,서울 양천구 목동중앙북로 38 목동롯데캐슬위너아파트 상가동 125호,37.5479038468127,126.866954843863
서울,오목교대학학원점,서울 양천구 목동  오목로319,37.5250775226211,126.873065467653
서울,양천구청점,"서울특별시 양천구 신정동  323-16 대영프라자   대영프라자103,104호",37.5153096995568,126.862318101443
서울,목동신목점,서울특별시 양천구 목동중앙로 85,37.5370101136194,126.871488815731
서울,강서초교점,"서울특별시 양천구 오목로 48 신월동, 지상1층",37.5220328857283,126.842960509946
서울,신정서부점,서울 양천구 신정로11길 50-15 1층 내(신정동),37.5122704830499,126.838323291194
서울,목동센트럴아이파크위브점,서울 양천구 남부순환로 603 (신월동) 1층,37.5152188104643,126.840692066592
서울,남부지방법원점,서울 양천구 은행정로4길 25,37.5215008347482,126.862615322582
서울,영등포점,"서울 영등포구 영중로 16-1 (영등포동3가) 1층,2층(영등포동3가)",37.5178785408619,126.906161197095
서울,당산버드나루점,서울 영등포구 버드나루로 87 (영등포동7가) 1층 102호,37.5259675849267,126.908721351403
서울,영등포홈플러스점,"서울 영등포구 당산로 42 (문래동3가, 홈플러스) 2층 x4y4호",37.5182396969791,126.895880210522
서울,신길성애병원점,서울 영등포구 여의대방로53길 27 (신길동) 1층,37.5118686256451,126.921547155805
서울,국회의사당역점,"서울 영등포구 의사당대로 22 (여의도동, 이룸센터) 1층",37.526869878743,126.917843631999
서울,남부고용센터점,서울 영등포구 양산로 71 (양평동3가) 1층,37.525029038125,126.891103928762
서울,영등포그랜드점,"서울 영등포구 양산로9길 15 (양평동3가, 그랜드타워) 1층 101호",37.526790955173,126.888600855285
서울,대림1동점,서울 영등포구 도림로 198 (대림동) 1층,37.4964305846605,126.902830683831
서울,영등포KNK점,"서울 영등포구 영신로 220 (영등포동8가, KnK디지털타워) 1층 105호",37.5268034272278,126.904261652136
서울,신길아이파크점,서울 영등포구 도림로 280 1층(신길동),37.5029405804778,126.904213869543
서울,서여의도점,서울 영등포구 여의도동 14-3 (아이비피아빌딩) 아이비피아 1F,37.5303059520401,126.919963300414
서울,영등포코레일점,"서울 영등포구 경인로 846 (영등포동, 영등포 민자역사) 영등포역 지하1층",37.5156680341198,126.907665995469
서울,IFC몰점,"서울 영등포구 국제금융로 10 (여의도동, 서울 국제금융 센터) IFC몰 L3",37.5251775245928,126.924876706923
서울,문래에이스점,"서울 영등포구 선유로13길 25 (문래동6가, 에이스하이테크시티2) 1층 112호",37.5189822790873,126.886278723171
서울,영등포당산엘르점,서울 영등포구 당산동1가 21 .,37.5215105276602,126.897333356024
서울,국회대로점,서울 영등포구 국회대로 638,37.5253762544746,126.904613154249
서울,신길쉔코리아점,서울 영등포구 도신로 204,37.5111754050247,126.913931066839
서울,보라매역점,서울 영등포구 신길동  501,37.4996926501653,126.919974273663
서울,당산역점,서울 영등포구 당산동5가 11-33 당산디오빌 1층,37.5332349430411,126.902268281463
서울,라이프점,서울 영등포구 여의도동  61-3,37.5194943505522,126.939271822326
서울,대림역점,서울 영등포구 대림동  1052-45번지 1층,37.4925477619089,126.895925383824
서울,여의도농협재단점,서울 영등포구 여의도동 농협문화복지재단 중1층 이디야커피,37.5284646,126.9300522
서울,선유도역점,서울 영등포구 양평동5가  57-1,37.5382475611022,126.893907734156
서울,영등포시장점,서울 영등포구 영등포로35길 19 (영등포동6가) 1층,37.5216798,126.9043896
서울,신길썬프라자점,서울 영등포구 신길동  4662,37.4964772869278,126.908626870615
서울,영등포에이스점,서울 영등포구 문래동3가  55-20 에이스하이테크시티2동 108호,37.5171264137473,126.894959979828
서울,한국수출입은행점,서울특별시 영등포구 은행로 38 (여의도동 한국수출입은행 ),37.5286372332436,126.923399003703
서울,신길역점,서울특별시 영등포구 영등포로 353,37.5150693438158,126.918084717307
서울,당산중앙점,서울 영등포구 당산로 159 1층(당산동4가),37.5288505614052,126.89756596732
서울,여의나루역점,"서울 영등포구 여의나루로 113 2층 201,220,221호",37.5260558187275,126.930769729764
서울,여의도역점,"서울 영등포구 의사당대로 108 비05호(여의도동, 아일렉스상가)",37.5210144173791,126.923991634451
서울,양평동2가점,서울 영등포구 선유서로25길 19 1층 101호(양평동2가),37.5245026993589,126.883941521256
서울,도림점,"서울 영등포구 도신로15길 40 (도림동,도림빌딩) 1층 102호",37.5086080352152,126.896572544617
서울,영등포아크로타워점,서울 영등포구 국회대로54길 10 상가1동 1층 2호,37.5236586861947,126.906430209934
서울,숙대입구역점,서울 용산구 갈월동  한강대로 289,37.5440581079411,126.971964095596
서울,동부이촌동점,서울특별시 용산구 이촌로77길 19 (이촌동 이촌종합상가 ),37.5205536707079,126.974666973357
서울,원효로점,서울특별시 용산구 원효로 257 1층(원효로1가),37.5405688166185,126.969114679317
서울,동자동점,서울특별시 용산구 후암로 93 (동자동) 지상1층,37.5533528859435,126.975117496502
서울,순천향병원점,서울특별시 용산구 대사관로 72 1층,37.5330952126175,127.005947068599
서울,IBK고객센터점,서울 용산구 한남동  707-18 IBK 고객센터 1층,37.5350756442577,127.007012576266
서울,삼각지점,서울 용산구 한강대로 138 1층(한강로2가),37.5314472493671,126.970454816197
서울,용산효창점,서울 용산구 효창원로66길 2 1층,37.5405650922374,126.962195166581
서울,용문점,서울 용산구 원효로41길 73 (원효로2가) 제1층,37.5358493643531,126.961137956254
서울,용산원효점,"서울 용산구 원효로 70 (원효로4가, 신정빌딩) 1층",37.5325054872953,126.951642152118
서울,용산청파점,"서울 용산구 청파로71길 10 (청파동1가, 새마을금고) 1층",37.5494639189725,126.969413497587
서울,용산원효대로점,서울 용산구 원효로3가 146-2 이디야커피 용산원효대로점,37.5337587650601,126.956224327881
서울,국립중앙박물관 버금홀점,서울 용산구 서빙고로 137 국립중앙박물관 버금홀,37.5247022357875,126.977740246542
서울,국립중앙박물관 야외카페점,서울 용산구 서빙고로 137 국립중앙박물관 별A동 1층,37.5247022357875,126.977740246542
서울,국립중앙박물관 으뜸홀카페점,서울 용산구 서빙고로 137 4층,37.5247022357875,126.977740246542
서울,역촌진흥로점,서울 은평구 진흥로1길 3 (역촌동) 1층,37.6007663433041,126.9186327061
서울,불광역점,서울 은평구 통일로 749 (대조동) 1층,37.6119412915133,126.928170521884
서울,녹번혁신파크점,서울 은평구 통일로 675 (녹번동) 이디야(녹번혁신파크점),37.6066595928946,126.933057960005
서울,불광점,서울 은평구 통일로 790 (불광동),37.615230520763,126.925968000044
서울,은평신사점,"서울 은평구 갈현로1길 21 (신사동, 새마을금고신사동제2분사무소) 이디야(은평신사점)",37.5992691027686,126.907879625565
서울,서광교회점,"서울 은평구 통일로 951 (갈현동, 서광교회) 서광교회1층",37.6277461902526,126.919185124303
서울,역촌역점,서울 은평구 진흥로 95 (역촌동),37.6054420445568,126.922124290438
서울,증산동점,서울 은평구 증산서길 78 (증산동),37.5833817968708,126.906584885911
서울,연신내역점,서울 은평구 통일로 855-9 (갈현동) 1층,37.6188948297727,126.919884176889
서울,응암역점,"서울 은평구 연서로 9 (역촌동, 센타폴리스) 1층 106호",37.6000995302827,126.91556845327
서울,은평구청점,서울 은평구 녹번동  212,37.6016109830295,126.929646162128
서울,본서부병원점,"서울 은평구 응암로 337 (응암동, 빛터룩스 빌딩) 1층",37.6013078542665,126.922128486696
서울,백련산아이파크점,서울 은평구 응암로 264 1층 좌측호(응암동),37.5952888457558,126.918874876038
서울,갈현점,"서울 은평구 갈현로 268 (갈현동, 101호, 102호)",37.6206319523994,126.916658816351
서울,역촌동점,"서울특별시 은평구 갈현로 82 (역촌동) 101호, 102호",37.6052664482641,126.910685555782
서울,응암오거리점,서울 은평구 응암동  577-78번지,37.590896106737,126.917125078968
서울,연신내통일로점,서울 은평구 통일로 876 (불광동) 1층,37.6212043252743,126.920274642424
서울,구파발역점,서울 은평구 진관동  72 드림스퀘어1층 115호 116호,37.6357791438795,126.919368120269
서울,구산역점,서울특별시 은평구 연서로 148-1 (대조동  ) 148,37.6119933217247,126.917747588911
서울,녹번동점,서울 은평구 녹번동  131-158 신명빌딩1층,37.6087475453486,126.926979329445
서울,종로4가점,서울특별시 종로구 김상옥로 1,37.573504922526,126.997895712568
서울,광화문스페이스본점,"서울 종로구 사직로8길 4 (사직동, 광화문 스페이스본) B1F 푸드코트 15호",37.5746716527447,126.968429762772
서울,종로이화동점,"서울 종로구 낙산성곽서1길 10 (이화동) 1,2층",37.5774862427837,127.008183259977
서울,안국역사점,서울 종로구 안국동 73-1 (3호선 안국역),37.5770225638078,126.985089637192
서울,경복궁역점,"서울 종로구 자하문로 7 (체부동, 성명빌딩) 1층",37.5767147965826,126.972206795305
서울,경희궁점,서울 종로구 경희궁1길 16 (신문로2가) 1층,37.5716953499755,126.970696336246
서울,북촌마을점,서울 종로구 북촌로5길 39 (화동) 2층,37.5793376128612,126.982701926649
서울,광화문점,서울 종로구 세종대로23길 15 (도렴동) 이디야커피,37.5715080785052,126.975654580061
서울,종로교차로점,서울특별시 종로구 동호로 406-1 이디야커피,37.5706007422209,127.002255096369
서울,창덕궁점,서울특별시 종로구 돈화문로 41-1 1층,37.5722791868711,126.991428924631
서울,독립문역점,서울 종로구 통일로 266 1층 102호(무악동),37.5758473655224,126.956783269179
서울,종로삼일대로점,"서울 종로구 삼일대로 390-1 1,2층",37.5694514711928,126.987964250478
서울,성균관대점,서울 종로구 성균관로 8 1층(명륜2가),37.5836585925455,126.998337309053
서울,창신중앙점,서울 종로구 지봉로 64 1층(숭인동),37.5757294269114,127.015830340656
서울,상명대점,서울 종로구 홍지동 60-2,37.601358944234,126.956228914047
서울,종로타워점,서울특별시 종로구 종로 51  지하1층 (종로2가),37.5707451369668,126.983611410428
서울,탑골공원점,서울특별시 종로구 수표로 109-1 (낙원동  ) 1층,37.5710140971942,126.989203278784
서울,낙원동점,서울 종로구 낙원동  46-4,37.57221,126.98762
서울,혜화동로터리점,"서울특별시 종로구 혜화로 3-1 1층, 2층",37.5860668674463,127.000571872704
서울,혜화역점,서울 종로구 창경궁로  258-15 전우빌딩,37.5835966141203,127.00065076533
서울,삼일빌딩점,서울 종로구 관철동  11-1,37.568779647784,126.986739378228
서울,동대문역점,"서울 종로구 율곡로 286 (종로6가, 야드인빌딩) 2층",37.571849178392,127.008052918051
서울,종로5가점,"서울 종로구 대학로 33 1층 103호(효제동, 포레스트힐시티)",37.5740452531084,127.001867937909
서울,배화여대점,서울 종로구 필운동 46,37.5777977649377,126.967514295037
서울,신설점,서울 종로구 난계로29길 30 (숭인동) 1층,37.5742373886978,127.021476077131
서울,대학로점,서울 종로구 대학로10길 17 동숭동복합건물 1층 9-1호,37.5820961487244,127.003178474246
서울,종로3가점,서울 종로구 종로3가 124번지,37.5701003178156,126.991535917702
서울,숭인점,서울 종로구 숭인동 1054번지,37.5752620679564,127.021596593342
서울,충무필동점,서울특별시 중구 퇴계로 218-5,37.561380272679,126.996296560896
서울,동국대후문점,"서울 중구 창경궁로 2 (충무로5가, 남경빌딩) 1층 2호",37.5625562142179,126.998689780725
서울,오장동점,서울특별시 중구 마른내로 109-1,37.5646143674959,127.000127901565
서울,IBK본점,"서울 중구 을지로 79 (을지로2가, 기업은행) 지하1층",37.5664935315447,126.986565470789
서울,퇴계로2길점,서울 중구 퇴계로2길 1 (남창동) 이디야커피,37.5575646098656,126.977410863982
서울,명동중앙점,"서울 중구 명동7길 21 (을지로2가, 명동아르누보센텀) 1층 121호",37.5647312946952,126.983858910559
서울,명동퍼시픽호텔점,서울 중구 퇴계로20길 2 1층,37.5597163723303,126.985434663205
서울,신당중앙점,서울 중구 황학동  2480,37.5656570468908,127.022351619145
서울,동대문점,서울 중구 을지로6가 18-37 삼정빌딩 1층,37.567705970155,127.007764172212
서울,정동점,서울 중구 정동  갑도빌딩 1층 23-8,37.5661683,126.9726202
서울,신당점,서울 중구 신당동  241-5,37.5635535056642,127.014817469068
서울,회현SK리더스점,서울 중구 회현동1가  206 104호,37.5591275120652,126.980636557364
서울,서소문점,서울 중구 서소문동  한성빌딩1층,37.56283,126.97365
서울,충무아트홀점,서울 중구 신당동  퇴계로 381-1,37.565280545198,127.01399810196
서울,명동역점,서울 중구 충무로1가  25-50번지,37.5608733185566,126.983218569314
서울,한국은행점,서울 중구 남대문로3가  98번지,37.561444409701,126.978963913754
서울,을지로3가점,서울 중구 저동2가 78 비즈센터 102,37.5654537350414,126.989679812578
서울,사가정아이파크점,"서울 중랑구 동일로92길 57 (면목동, 메디포레) 1층",37.5834835948977,127.083196727099
서울,동부제일병원삼거리점,"서울 중랑구 망우로 505 (망우동, 미래학원) 1층",37.6006721423547,127.108627207598
서울,망우코레일점,"서울 중랑구 망우로55길 11-10 (상봉동, 망우역) 망우역1층",37.5992876153903,127.092756577852
서울,중랑묵동점,서울 중랑구 공릉로 42 W7빌딩 1층,37.6143693114243,127.078289365778
서울,면목늘찬병원점,"서울 중랑구 동일로 643 (면목동, 늘찬병원) 1층",37.5879908042663,127.079680860838
서울,면목역점,"서울 중랑구 면목로 429 (면목동, 킴스아파트)",37.5901934659094,127.086826066156
서울,서울의료원점,서울 중랑구 신내로 156 1층,37.6130913124974,127.099186989431
서울,서울중화초등학교점,"서울 중랑구 신내로7가길 7 (신내동, 제이리옴) 1층",37.6023410867238,127.095449921433
서울,상봉역점,서울 중랑구 망우로 277 (상봉동) 1층 이디야커피,37.5960553404392,127.08342099906
서울,면목경남아너스빌점,서울 중랑구 면목로27길 92 (면목동) 1층,37.5742668436457,127.080518532414
서울,양원역점,서울 중랑구 양원역로14가길 24 (망우동) 101호,37.6074086408308,127.106775480666
서울,화랑대역점,"서울 중랑구 신내로25가길 2 (묵동, 현동학당) 104호",37.6194780819731,127.08419542632
서울,봉화산역점,서울 중랑구 신내동  646 금강리빙스텔114,37.6163256561145,127.092677385305
서울,동원사거리점,"서울 중랑구 겸재로 240 (면목동, 행복오피스텔) 102호",37.589617921724,127.094102257802
서울,먹골역점,서울 중랑구 동일로157길 13 (묵동) 1층,37.6097411262067,127.076897926489
서울,중화동점,서울 중랑구 동일로129길 1 (중화동) 1층,37.5993838458016,127.079542626772
서울,서일중앙점,"서울 중랑구 용마산로 394 1층, 1호(면목동)",37.5866519523067,127.095551256708
서울,중랑교차로점,서울 중랑구 동일로 683 1층(면목동),37.5914442733687,127.079864348337
서울,상봉엠코점,서울특별시 중랑구 망우로 353,37.5983328190955,127.091624142481
서울,상봉중앙점,서울특별시 중랑구 망우로 316  1층 103호,37.5965223858128,127.087565034141
서울,망우중앙점,서울특별시 중랑구 용마산로115길 109,37.5974663223384,127.094160266661
서울,중랑역점,서울 중랑구 상봉동  130-99,37.5932854683066,127.074888698368
서울,신내동점,서울 중랑구 신내동  613-10,37.6076711555747,127.096565133423
서울,사가정역점,서울 중랑구 면목로 325 .,37.5811367688006,127.088173980648
경기,수원서문점,경기 수원시 장안구 장안로 10 (영화동),37.2861542392117,127.007072972852
경기,수원오목천점,"경기 수원시 권선구 삼천병마로1592번길 3-4 1층 101호(오목천동, 남현빌딩)",37.2447770390263,126.964106948698
경기,수원호매실중앙점,"경기 수원시 권선구 금곡로 204 113,114호(금곡동, 세종타운 721)",37.2734052383682,126.950372502188
경기,수원로데오점,"경기 수원시 팔달구 갓매산로 46 1,2층(매산로2가)",37.2667736950149,127.006711519498
경기,수원광교호수공원점,"경기 수원시 영통구 법조로 38 B14호, B15호",37.2868888807808,127.062148509856
경기,수원인계점,경기 수원시 팔달구 인계동 1046-2,37.2628684457769,127.031864176582
경기,일월수목원점,경기 수원시 장안구 일월로 68 (천천동) 이디야커피,37.2888723661722,126.977493918182
경기,수원삼성정문점,경기 수원시 영통구 삼성로 186-1 (매탄동) 1층,37.2594331492181,127.058315481174
경기,수원터미널점,"경기 수원시 권선구 경수대로 270 (권선동, 터미널동, 할인점동) 1305호",37.2505144677203,127.019638678088
경기,수원아주대점,"경기 수원시 영통구 월드컵로 191 (원천동, 동문빌딩) 1층",37.2790866334769,127.044712599556
경기,수원광교에듀타운점,"경기 수원시 영통구 도청로17번길 40 (이의동) 1층 107호,108호",37.2850183464485,127.052624466157
경기,수원인계한신점,"경기 수원시 팔달구 경수대로 549 (인계동, 동수원빌딩) 103,104호",37.2775980822279,127.030317057063
경기,수원광교역점,경기 수원시 영통구 대학1로 49 1층(이의동),37.3000275895805,127.045141411828
경기,수원한일타운점,"경기 수원시 장안구 송원로 113 (조원동, 조원빌딩)",37.3044420429474,127.011751212276
경기,수원화성갈비점,경기 수원시 팔달구 중부대로34번길 25 (인계동),37.2740748543143,127.020584348813
경기,광교아이스링크점,경기 수원시 영통구 광교호수로 165 (하동) 광교복합체육센터 내,37.2832676948208,127.070056750175
경기,수원화홍문점,경기 수원시 팔달구 화서문로75번길 27 (북수동),37.2871348311885,127.016931329545
경기,수원서광교스위첸점,경기 수원시 장안구 연무동 224 20호,37.3170437497176,127.026669452742
경기,광교플렉스데시앙점,"경기 수원시 영통구 창룡대로256번길 50 (이의동) L1,L2",37.2954630286643,127.039055523597
경기,광교롯데마트점,경기 수원시 영통구 이의동 1332 롯데마트 광교점 B1층,37.2906667925637,127.050518820725
경기,수원남부경찰서점,경기 수원시 영통구 중부대로368번길 8-8 1층,37.271905845725,127.0554494735
경기,수원시청점,경기 수원시 팔달구 효원로219번길 33 (인계동) 이디야커피 수원시청점,37.2648373336189,127.02627561748
경기,수원체육문화센터점,경기 수원시 영통구 영통로 383 (영통동) 지하1층,37.2585694958662,127.067797240834
경기,수원화서시장점,경기 수원시 팔달구 동말로 55 1층(화서동),37.278963075036,127.000270281133
경기,수원황골마을점,경기도 수원시 영통구 봉영로1759번길 7 (영통동) 1층,37.2659285498967,127.081425256181
경기,수원매탄점,경기 수원시 영통구 효원로 393 1층,37.2591165009604,127.044694930826
경기,수원영통점,경기 수원시 영통구 영통동 995-5,37.2527609764685,127.073444104674
경기,성빈센트병원점,경기 수원시 팔달구 지동 성빈센트병원 93-6 1층,37.2815595456453,127.024708400375
경기,수원백성병원점,경기 수원시 팔달구 인계동  1019-3,37.2677771559465,127.028635865495
경기,수원망포점,경기 수원시 영통구 망포동  558번지 107호,37.2379060729932,127.056737929677
경기,수원디지털엠파이어2점,경기 수원시 영통구 신동  신원로88 디지털엠파이어2 101-104,37.2474668310069,127.050275929193
경기,수원탑동점,경기 수원시 권선구 탑동  863-1 102호,37.2687099986971,126.97577946545
경기,수원정자점,경기도 수원시 장안구 정자천로173번길 11-6 (정자동 세경프라자 ),37.295888406963,126.994288313093
경기,수원AK&점,경기도 수원시 팔달구 덕영대로 924  AK& 3층,37.2655920786365,127.000179930083
경기,수원금곡점,경기도 수원시 권선구 서수원로523번길 30-13 (금곡동),37.2714204544382,126.95788838097
경기,수원호매실점,"경기도 수원시 권선구 금곡로102번길 29  108호(금곡동, 센트럴프라자A)",37.272805813297,126.941752679321
경기,서수원이마트점,경기 수원시 권선구 수인로 291,37.28262996578,126.97014551047
경기,수원경희대점,경기도 수원시 영통구 덕영대로 1709 1층 101호,37.2479871951325,127.078439370717
경기,수원메르디앙점,경기도 수원시 팔달구 경수대로604번길 19,37.2799470202955,127.031964288588
경기,수원망포역점,경기도 수원시 영통구 영통로 195,37.2451815599677,127.055799794469
경기,수원영통중앙점,경기 수원시 영통구 봉영로 1613 하우스토리 102호,37.2551055507166,127.073928382039
경기,수원곡반정동점,경기도 수원시 권선구 곡반정로97번길 20,37.237485668721,127.029428040513
경기,수원인계중앙점,경기 수원시 팔달구 권광로 280 1층 일부,37.2720786381584,127.036198813905
경기,수원영통디지털점,"경기 수원시 영통구 덕영대로1556번길 16 F동 180, 181호",37.2452635378131,127.059176131052
경기,수원원천동점,"경기 수원시 영통구 중부대로448번길 97 104.105호(원천동, 삼성테크노파크)",37.2676809544493,127.061469801941
경기,수원삼성교점,경기 수원시 영통구 인계로 289,37.2633634176995,127.049158244292
경기,수원신동점,경기 수원시 영통구 권선로882번길 115-2 1층(반정동),37.2452819979976,127.041116962843
경기,판교파미어스몰점,경기 성남시 수정구 창업로 17 (시흥동) C2블록 B1층 B103-2호,37.4120131608179,127.097830310006
경기,정자역점,경기 성남시 분당구 정자일로 177 2층 204호,37.36615350748,127.105415087392
경기,성남동점,경기 성남시 중원구 둔촌대로 115 1층 102호(성남동),37.4292859654458,127.131766016339
경기,분당미금제일점,경기 성남시 분당구 미금일로86번길 11 (구미동) 1층,37.3470986985428,127.110222906752
경기,판교봇들마을점,"경기 성남시 분당구 판교로 375 (삼평동, 메가스페이스1) 1층 106, 107호",37.4054600193076,127.1193434494
경기,성남복정도서관점,경기 성남시 수정구 복정로 121 (복정동) 1층 101호,37.4638206233164,127.126848082516
경기,성남고등동점,경기 성남시 수정구 청계산로4길 31 (고등동) 1층,37.4238375081574,127.101027969785
경기,분당서현시범단지점,"경기 성남시 분당구 중앙공원로40번길 8 (서현동, 현대근린상가) 1층 146호",37.3797055883846,127.130169972948
경기,성남하대원점,경기 성남시 중원구 둔촌대로 272 (하대원동) 1층 일부호,37.4288100700892,127.148399235704
경기,성남상대원시장점,경기 성남시 중원구 희망로 334 (상대원동) 1층,37.4356308742851,127.158310852771
경기,성남단대점,경기 성남시 수정구 산성대로 383 (단대동) 1층 일부,37.4465102632763,127.157161193253
경기,분당구미점,경기 성남시 분당구 미금로 40 1층,37.3370729145583,127.116639959081
경기,성남금광점,경기 성남시 중원구 광명로 329-1 (금광동) 1층,37.4456592501967,127.162430316517
경기,판교대장지구점,경기 성남시 분당구 판교대장로7길 6-44 (대장동) 1층,37.3718604472551,127.069880968904
경기,분당중탑점,경기 성남시 분당구 야탑동 274-2 (대명빌딩),37.4111835986763,127.137945407646
경기,성남금광중앙점,경기 성남시 중원구 금광동 2887 (한양빌딩),37.4506313336709,127.16553090071
경기,분당오리홈플러스점,"경기 성남시 분당구 탄천상로151번길 20 (구미동, 월드쇼핑(CGV Square)) 지하1층 일부호",37.340325267557,127.106819052222
경기,분당이매점,경기 성남시 분당구 이매동 120-2 (성우빌딩),37.3917279414139,127.125584139531
경기,궁내크리스탈DI점,"경기 성남시 분당구 대왕판교로 221 (궁내동, 동일빌딩) 이디야커피(궁내크리스탈DI점)",37.3633336412453,127.101201466723
경기,판교고등점,"경기 성남시 수정구 청계산로1길 25 (고등동, 카사벨라) 1층",37.4286000893241,127.094734375272
경기,성남아이파크디어반점,경기 성남시 중원구 갈마치로 245 (상대원동) 1층 107호(상대원동),37.4359204787061,127.173019762764
경기,남한산성입구역점,경기 성남시 수정구 논골로 20 (양지동) 이디야(남한산성입구역점),37.4560152482442,127.160496956562
경기,분당파크뷰점,경기도 성남시 분당구 정자일로 248,37.3756755448413,127.107714577463
경기,태평역점,경기 성남시 수정구 태평동 6455번지 동인트루빌 101호,37.4404563883147,127.129324349965
경기,미금점,경기 성남시 분당구 금곡동  155 우방코아 104,37.3504024050519,127.110035414854
경기,서현점,경기 성남시 분당구 서현동  250-4 금호리빙스텔 108호,37.386171721845,127.123592477078
경기,야탑2호점,경기 성남시 분당구 야탑로69번길 8 106호,37.4105252389961,127.126827518054
경기,야탑역점,경기 성남시 분당구 야탑동  360-1 시그마3 104호,37.4135082482096,127.1295644701
경기,가천대점,경기 성남시 수정구 태평동  성남대로 1334 110호,37.4488403598708,127.127131534265
경기,수내중앙점,경기 성남시 분당구 수내동  29,37.3747759730084,127.118445913759
경기,성남도촌동점,경기도 성남시 중원구 도촌남로 33 (도촌동 세일프라자 ) 106호,37.4145639434219,127.151143073385
경기,분당신기사거리점,경기도 성남시 분당구 불정로87번길 17 (정자동  ) 경기도 성남시 분당구 133번지 10,37.3615510268653,127.114284068588
경기,분당느티마을점,경기도 성남시 분당구 느티로63번길 6-3 (정자동  ),37.3690816530912,127.112087985443
경기,동서울대점,경기 성남시 수정구 복정동 686-1,37.4590004518165,127.126876561255
경기,분당효자촌점,경기도 성남시 분당구 돌마로486번길 6,37.3771067444153,127.133900596908
경기,성남상대원점,경기도 성남시 중원구 금상로57번길 4,37.4407292069791,127.162339768474
경기,성남시청점,경기도 성남시 중원구 양현로405번길 7 (여수동  ),37.4176577329778,127.126883375308
경기,분당쉐르빌점,경기도 성남시 분당구 정자일로 100 (정자동 미켈란쉐르빌 ),37.3587352007253,127.107488086879
경기,분당아름마을점,"경기도 성남시 분당구 판교로 443 1층 109호(야탑동, 중앙퍼지마트)",37.405736090993,127.123122892189
경기,단대오거리역점,경기도 성남시 중원구 산성대로 344 (중앙동) 1층,37.4434367821678,127.154728109703
경기,수내푸른마을점,경기도 성남시 분당구 불정로 254 1층(수내동) 삼평프라자 이디야커피점,37.3663977549835,127.126820939329
경기,야탑중앙점,경기도 성남시 분당구 매화로 41 (야탑동),37.4113194313423,127.133587133103
경기,위례중앙타워점,경기 성남시 수정구 위례광장로 300 중앙타워208호,37.4734715546921,127.14270025965
경기,성남SKN테크노파크점,경기 성남시 중원구 사기막골로 124 비즈센터동1층 110-1호,37.4405625538568,127.177483892075
경기,용인하나로마트점,경기 용인시 기흥구 중부대로 682 (상하동) 농협하나로클럽용인점 내 이디야커피,37.2660474710871,127.135844388634
경기,용인농서점,"경기 용인시 기흥구 서천로202번길 5 1층 101,102호",37.2303958779547,127.069683946334
경기,수지동천자이점,경기 용인시 수지구 고기로 89 상가동B114~115호,37.3447488936611,127.091532269053
경기,용인에버랜드역점,"경기 용인시 처인구 포곡읍 전대로78번길 19-2 (전대리 , 골든튤립에버호텔) 102호",37.2870386399864,127.216776425417
경기,용인백암점,경기 용인시 처인구 백암면 덕평로 1-1 1층 이디야커피,37.1707958653335,127.370667920314
경기,용인마평점,"경기 용인시 처인구 금령로 147 (마평동, 한솔빌딩) 101호",37.2351162357995,127.212659089322
경기,용인천리점,경기 용인시 처인구 이동읍 백옥대로 618 1층 일부,37.1919796487002,127.207261976421
경기,용인상현중앙점,"경기 용인시 수지구 수지로 77 (상현동, 힐프라자) 1층 105호,106호",37.3099478896842,127.07598195304
경기,용인양지점,경기 용인시 처인구 양지면 양대로 13 1층,37.234517218484,127.285790403223
경기,용인성복느티나무점,"경기 용인시 수지구 성복1로 80 (성복동, 성복역 서희스타힐스) 1층 105호",37.3156726620216,127.071267962717
경기,용인한숲시티점,경기 용인시 처인구 남사면 한숲로 123 3단지 근린생활시설 동 지하1층 112호,37.1157126870885,127.150478244526
경기,용인상현마을점,"경기 용인시 수지구 상현로 6 (상현동, 광교상현 솔하임) 1층",37.3025115899845,127.074650278871
경기,용인외대점,경기 용인시 처인구 모현읍 왕산리 499-5 (우주빌딩),37.3357931022984,127.253370296342
경기,광교숲속마을점,경기 용인시 수지구 광교호수로378번길 1 (상현동) 1층,37.2982773637696,127.080273144546
경기,용인기흥역점,경기 용인시 기흥구 구갈동 274-9 1층 이디야커피,37.2776076853077,127.117348033021
경기,수원신갈IC점,경기 용인시 기흥구 신갈동 455-5 (안전빌딩) 1층,37.2708374674641,127.102272416278
경기,용인서천중앙점,경기 용인시 기흥구 서천동 722,37.2407606676075,127.072741150858
경기,용인중앙점,경기 용인시 처인구 김량장동 92-2 2층,37.235453908601,127.207448547787
경기,용인처인구청점,경기 용인시 처인구 금령로12번길 19 (김량장동) 이디야(용인처인구청점),37.2339651954122,127.199159325118
경기,르노코리아중앙연구소점,"경기 용인시 기흥구 탑실로 61 (공세동, 르노코리아자동차(주)중앙연구소)",37.2405118033107,127.113523027546
경기,수지성복점,"경기 용인시 수지구 성복2로 226 105호(성복동, 유재빌딩)",37.3201163814678,127.062668542059
경기,단대죽전점,경기 용인시 수지구 죽전로144번길 7-5 1층 108호,37.3235860043263,127.124166403559
경기,수지구청점,경기 용인시 수지구 풍덕천동  717-1,37.3237586916929,127.097243726957
경기,용인IT밸리점,경기 용인시 기흥구 영덕동  765-7 102호,37.271517245911,127.068805419281
경기,용인동백중앙점,"경기도 용인시 기흥구 동백중앙로 283 골드프라자 B123,124호 (중동)",37.278013079108,127.153487824004
경기,용인백현점,경기도 용인시 기흥구 동백중앙로 358-8,37.2820996527603,127.160018427045
경기,용인동백호수점,경기 용인시 기흥구 평촌2로2번길 12 1층,37.2829605755696,127.153501253882
경기,죽전벽산점,경기 용인시 수지구 죽전동 826,37.3357357315629,127.108455657435
경기,용인신갈점,"경기 용인시 기흥구 새천년로 20 106호, 107호",37.2890946339096,127.111415169487
경기,용인신갈중앙점,경기 용인시 기흥구 신갈로58번길 33 1층,37.2731193459369,127.109239577313
경기,흥덕이마트점,경기 용인시 기흥구 영덕동 흥덕지구 508블록 이마트 1층,37.2778227962424,127.074495882949
경기,용인둔전점,경기 용인시 처인구 포곡읍 포곡로 99 (1층 일부),37.2692176695141,127.216560382366
경기,수지풍덕천점,경기 용인시 수지구 정평로 40-4 (풍덕천동),37.3196951489741,127.087758660305
경기,수지신봉초교점,경기 용인시 수지구 신봉2로 115-16 1층 102호(신봉동),37.3286655050103,127.068460779545
경기,용인죽전누리에뜰점,"경기 용인시 기흥구 죽전로 20 132,133호(보정동, 죽전우리에뜰)",37.3240360457263,127.123845704665
경기,용인신동백점,경기 용인시 기흥구 동백죽전대로527번길 100-3 101호(중동),37.2808503606594,127.14350376789
경기,광교상현역점,"경기 용인시 수지구 광교중앙로296번길 14 103,104호(상현동)",37.2971945733906,127.069929923132
경기,용인서천점,"경기 용인시 기흥구 서그내로 31 상가동 106,107호",37.2451107968065,127.075235718937
경기,용인역북중앙점,경기 용인시 처인구 중부대로1313번길 2 1층,37.2360053200981,127.190966886951
경기,용인포곡점,경기 용인시 처인구 포곡읍 포곡로 220 1층,37.275797890915,127.227548532465
경기,안양7동점,경기 안양시 만안구 전파로 23 B동 1층 9~10호,37.3914549918236,126.93546507336
경기,대림대점,"경기 안양시 동안구 임곡로 29 (비산동, 대림대학교) 대림대학교 생활관 1층 일부호(비산동)",37.4032913499382,126.930684164957
경기,평촌갈산공원점,경기 안양시 동안구 갈산로 53 (호계동) 이디야(평촌갈산공원점),37.3767278185582,126.960621247294
경기,안양씨엘포레점,"경기 안양시 만안구 소곡로 78 (안양동, 안양씨엘포레자이) 1층",37.388075927704,126.923173440837
경기,안양종합운동장점,경기 안양시 동안구 평촌대로 364 (비산동) 1층,37.403189158833,126.949928665851
경기,평촌더샵센트럴시티점,"경기 안양시 동안구 부림로 188 (관양동, 청용빌딩) 다동 1층 105호 이디야커피",37.3997138778214,126.961618556777
경기,안양관양점,"경기 안양시 동안구 관악대로388번길 3 (관양동, 고양빌딩) 1층",37.4041255407415,126.966328613202
경기,안양비산사거리점,경기 안양시 동안구 경수대로883번길 96 (비산동) 1층,37.3978393535282,126.933977315601
경기,안양예술공원점,경기 안양시 만안구 예술공원로 148 (안양동) 1층,37.418573658478,126.922319445668
경기,안양SKV1점,"경기 안양시 동안구 엘에스로116번길 25-32 (호계동, 안양 SK V1 center) 153호",37.3740594958953,126.948787645865
경기,평촌샛별점,"경기 안양시 동안구 동안로 194 1층 140호(비산동, 평촌스포츠센타)",37.3958094706658,126.949171730196
경기,평촌학원가점,경기 안양시 동안구 호계동 1058-6,37.3838291117506,126.95917402977
경기,안양대점,경기 안양시 만안구 안양로257번길 23 1층,37.395058187089,126.922844233626
경기,평촌스마트스퀘어점,경기도 안양시 동안구 시민대로327번길 6,37.3966491352893,126.966964163456
경기,안양덕천점,경기도 안양시 만안구 덕천로48번길 50,37.3858137675839,126.938838248979
경기,인덕원역점,경기도 안양시 동안구 흥안대로 517,37.3999849888915,126.976369966042
경기,안양중앙점,경기도 안양시 만안구 안양로 283 (안양동) 1층,37.3975677776176,126.921981657212
경기,안양1번가점,경기 안양시 만안구 안양동  674-154,37.3992791246234,126.923835003952
경기,평촌점,경기 안양시 동안구 관양동 벌말프라자 107호 1604-4,37.4060457499298,126.961457538379
경기,안양점,경기 안양시 만안구 안양동  668-33,37.4006390612381,126.920586486465
경기,범계점,경기 안양시 동안구 호계동 1042 에메랄드빌딩104호,37.3914654310788,126.953474334658
경기,성결대점,경기 안양시 만안구 냉천로 2 지상1층,37.3821758911713,126.929919541365
경기,안산리더스카이점,"경기 안산시 단원구 와동로 125 (와동) 115,116호",37.336075200564,126.829208419892
경기,안산수암동점,경기 안산시 상록구 수암2길 3 (수암동) 1층,37.364226668889,126.876871021632
경기,안산월피현대점,"경기 안산시 상록구 충장로 579 1층, 8~9호(안산현대2차아파트 상가동B동)",37.3102271107863,126.853832373449
경기,안산초지푸르지오점,"경기 안산시 단원구 화랑로 160 (초지동, 단지내 상가) 127호. 128호",37.3234584486343,126.805743217983
경기,안산고대병원점,"경기 안산시 단원구 적금로 123 (고잔동, 고려대학병원) 병원내 1층",37.3188584497967,126.824999466436
경기,안산고잔로데오점,"경기 안산시 단원구 광덕2로 164 (고잔동, 메디피아) 102호",37.3096515465555,126.828346149785
경기,대부도펜션타운점,경기 안산시 단원구 참살이2길 12 (선감동) 나동 2층,37.2332234231473,126.624382304288
경기,안산원시역점,경기 안산시 단원구 별망로 555 (원시동) 141호,37.3010456572711,126.786975294393
경기,동안산병원점,경기 안산시 상록구 월피로 81 (월피동) 이디야커피,37.3356530063697,126.85225489233
경기,안산대부북동점,경기 안산시 단원구 대부황금로 1203 (대부북동) 이디야커피,37.2657710553285,126.577553057877
경기,안산본오동2호점,경기 안산시 상록구 샘골로 184 (본오동) 102호,37.3002853217136,126.863535071933
경기,안산반월동점,"경기 안산시 상록구 창말2길 25 (건건동) 108호, 109호",37.3057284873459,126.903010280359
경기,안산상록구청점,경기 안산시 상록구 석호로 107 (사동) 1층 101호,37.3017383469095,126.847389432416
경기,안산반달섬점,경기 안산시 단원구 성곡동 839-11 (반달섬 파크프라자) 105~106호,37.3169410637593,126.739059628626
경기,안산상록수역점,"경기 안산시 상록구 상록수로 44 (본오동, 상림프라자) 1층 101.102호",37.3025041594627,126.863411050965
경기,대부도메르블루점,경기 안산시 단원구 대부남동 3-175,37.2235614686898,126.604161820074
경기,안산롯데마트점,"경기 안산시 상록구 항가울로 422 (성포동, 롯데마트) 1층",37.3179906301239,126.846736316027
경기,안산석호로점,경기 안산시 상록구 석호로 223 (사동) 1층102호(사동),37.2940833697485,126.855391564421
경기,안산해양점,"경기 안산시 상록구 해양로 14 (사동, 안산고잔9차푸르지오 상가동) 103호, 104호, 105호",37.2943534313856,126.820822451393
경기,안산팔곡이동점,경기 안산시 상록구 해안로 1351 (팔곡이동) 이디야커피 안산팔곡이동점,37.2971821947664,126.888044278808
경기,안산고잔역점,경기 안산시 단원구 다리간로 18 1층,37.3147789559259,126.823800600658
경기,안산중앙역점,경기 안산시 단원구 고잔동  729-3,37.3144168685375,126.838542670144
경기,안산본오동점,경기 안산시 상록구 본오동  872-16,37.2976385845592,126.863427857199
경기,안산성포동점,경기 안산시 상록구 성포동  593-10,37.3267474262656,126.844474920496
경기,안산한대앞역점,경기 안산시 상록구 중보로 49 1층,37.3076783753741,126.85210863416
경기,안산초지점,경기 안산시 단원구 초지동  729,37.3088301801753,126.815830546294
경기,안산한도병원점,경기도 안산시 단원구 선부광장로 95 (선부동  ) 109호,37.333196798251,126.808177356535
경기,안산한대점,경기도 안산시 상록구 한양대학로 40 (사동) 1층(사동),37.3009575386587,126.83904528042
경기,안산반월공단점,경기도 안산시 단원구 동산로 76,37.3130157823927,126.798857734989
경기,안산일동점,경기 안산시 상록구 안산대학로 97 1층 (일동),37.309325487815,126.868621393709
경기,고잔이마트점,경기 안산시 단원구 고잔동 742-6 이마트고잔점 3층,37.3219394584907,126.832292027071
경기,안산식물원사거리점,경기 안산시 상록구 도매시장로 91 1층(일동),37.3139068272532,126.863006642964
경기,안산사동점,"경기 안산시 상록구 감골2로 13 1층 101, 102호(사동, 예누림분산상가동)",37.2908596438368,126.852474587366
경기,안산스포츠파크점,"경기 안산시 단원구 첨단로 644 (초지동, 안산스포츠파크1층 일부)",37.2945129359259,126.790336660676
경기,안산부곡동점,경기 안산시 상록구 부곡로 115 103호(부곡동),37.3324236764139,126.862930147972
경기,안산월피동점,"경기 안산시 상록구 광덕산2로 17 103, 104호(월피동)",37.3354981240891,126.845555966096
경기,안산사동중앙점,경기 안산시 상록구 항가울로 19 102호 (사동),37.2837554708334,126.847124782346
경기,안산호수동점,"경기 안산시 단원구 광덕대로 130 (고잔동, 폴리타운) 1층 103,4호",37.3125288041528,126.830084636115
경기,안산단원병원점,"경기 안산시 단원구 원포공원1로 19 (초지동, 원포빌딩) 110호",37.3003877060879,126.812414425513
경기,서울렛츠런파크점,"경기 과천시 경마공원대로 107 1층, 5층(주암동)",37.4412157413876,127.0162939669
경기,과천중앙점,"경기 과천시 별양상가2로 35 (별양동) 3동 113,114호",37.4254032971493,126.991857724067
경기,과천역점,"경기 과천시 별양로 164 (부림동, 과천센트럴파크푸르지오써밋) 상가동 7-2호",37.4328052462288,126.998862432277
경기,의왕오전동점,경기 의왕시 오전동  839 동원빌딩 2층 이디야커피,37.3585627989707,126.967878688314
경기,의왕백운밸리점,"경기 의왕시 백운중앙로 88 상가동 1층 07,08호",37.3703781439534,127.009689192769
경기,의왕백운호수점,경기 의왕시 백운중앙로5길 5 (학의동) 1층 101호,37.37410317249,127.01064085726
경기,의왕롯데마트점,"경기 의왕시 계원대학로 7 (내손동, 롯데마트) 1",37.3805432278472,126.972871115511
경기,산본점,경기 군포시 광정로 58 1층 이디야커피(신산본빌딩),37.3585078307294,126.930982279358
경기,산본역사점,경기도 군포시 번영로 504 3층 3-다호,37.3581051591978,126.933175158373
경기,금정역점,경기 군포시 산본천로 216 1층,37.3711345024945,126.94142283943
경기,군포역점,경기 군포시 군포로 535 1층(당동),37.3539009177245,126.946160184185
경기,군포송정지구점,경기 군포시 송부로33번길 3-13 1층(도마교동),37.315494743219,126.916905496058
경기,군포대야미점,경기 군포시 대야1로15번길 5 (대야미동) 1층,37.3266634180265,126.917690112148
경기,금정신환사거리점,경기 군포시 금재로 2-1 (금정동),37.3621484001168,126.941450933862
경기,시흥한라비발디점,경기 시흥시 배곧1로 27-15 301동 1층,37.3653496024812,126.712516180176
경기,시흥삼미시장점,"경기 시흥시 삼미시장1길 19 (신천동, 늘푸른교회)",37.4405931113597,126.783935242547
경기,시흥월곶동서로점,"경기 시흥시 동서로10번길 7 (월곶동) 1층 일부호, 2층 전부(월곶동)",37.3897194656172,126.752602321065
경기,시흥정왕엠티브이점,경기 시흥시 엠티브이24로 20 (정왕동) 101호,37.314439874992,126.714281956394
경기,시흥에이스타워점,"경기 시흥시 엠티브이26로19번길 1 (정왕동, (주)에이스타워) 1층 109호(정왕동)",37.3209713880459,126.702341364694
경기,시흥월곶포구점,"경기 시흥시 월곶해안로 165 (월곶동, 광명빌딩) 101,102호",37.3884722230653,126.738224048259
경기,시흥타원타크라점,"경기 시흥시 옥구천동로 218 (정왕동, 타원타크라 6차 지식산업센터)",37.3433990071855,126.718210303324
경기,시흥능곡중앙점,"경기 시흥시 능곡번영길 30 (능곡동) 1층 108,109호",37.370218701096,126.806650618584
경기,시흥서울대학로점,"경기 시흥시 서울대학로 59-21 (배곧동, 배곧로얄팰리스 테크노1차) 1층 110호",37.3575729545218,126.705992084464
경기,시흥배곧고등학교점,"경기 시흥시 배곧4로 87 (정왕동, 베스트프라자) 1층 116, 117호",37.374597699316,126.73340139468
경기,시흥정왕보건소점,"경기 시흥시 정왕대로233번안길 1 (1층,우촌빌딩)",37.3470042692613,126.74131721136
경기,시흥대야점,경기도 시흥시 대야동  579-2 하이베라스텔(은행순환로 77)   104-105호,37.4457837798159,126.798167092588
경기,시흥신일점,경기 시흥시 시흥대로 1069 1층(신천동),37.4314028681275,126.792593688494
경기,시흥배곧신도시점,"경기 시흥시 서울대학로278번길 21 1층 119,120호(정왕동 새롬프라자2)",37.3694849114564,126.728009537798
경기,시흥배곧타운점,경기 시흥시 배곧4로 22 1층 119호(정왕동),37.3775813436,126.72696325273
경기,오이도빨간등대점,경기 시흥시 오이도로 195 (정왕동),37.3435148752743,126.687262447345
경기,시흥조남점,"경기 시흥시 목감우회로 51 1층 106호(목감동, 목감지구 동한메디컬프라자)",37.3822556593857,126.861958216347
경기,오이도점,"경기 시흥시 오이도로 119 1층, 2층",37.3479474685087,126.69110152986
경기,시흥거모동점,경기도 시흥시 도일로112번안길 21-2  101(거모동),37.3426316432534,126.785153915352
경기,정왕역점,경기도 시흥시 마유로418번길 18,37.3511931087894,126.742913658885
경기,시화로데오점,경기도 시흥시 중심상가2길 20-13 (정왕동  ),37.3443815569637,126.737309003424
경기,광명사거리역점,경기도 광명시 오리로 974 (광명동  ) 201호,37.479575299528,126.855184789358
경기,광명역코레일점,"경기 광명시 광명역로 21 1층 고객라운지내서편맞이방호(일직동, 고속철도 광명역)",37.4163635638303,126.884877197434
경기,광명중대병원점,"경기 광명시 덕안로104번길 17 (일직동) 1층 109호(일직동,M클러스터)",37.4242146189695,126.887063229173
경기,광명역데시앙점,경기 광명시 양지로 21 (일직동) C동 2층 217호,37.417690389449,126.882210419136
경기,부천중동시계탑점,경기도 부천시 원미구 조마루로297번길 33,37.4991772389382,126.776228325111
경기,부천상동세이브존점,"경기 부천시 원미구 길주로 105 (상동, 드림모아) 지하1층 101호 일부",37.5064196746015,126.754147529802
경기,부천원종역점,경기 부천시 오정구 원종동 228-6,37.5242080242485,126.80446833198
경기,부천오정대공원점,경기 부천시 오정동 127-14,37.5290058357672,126.797402178818
경기,신중동점,"경기 부천시 길주로 275 (중동, 중동프라자) 중동프라자 1층104호",37.5039053871865,126.773318974917
경기,부천세무서점,경기 부천시 신흥로 266 (중동) 102호,37.5073161339358,126.775440831196
경기,부천소사스위첸점,"경기 부천시 은성로67번길 12 (소사본동, 소새울KCC스위첸) 제2동 1층 209호",37.4755049089934,126.798819094947
경기,부천심곡본동점,"경기 부천시 성주로176번길 28 (심곡본동) 1층, 2층",37.4776235431706,126.775416766965
경기,부천뉴코아점,"경기 부천시 송내대로 239 (상동, 부천터미널소풍) BF07-3호",37.5041446553817,126.756721807955
경기,부천약대오거리점,경기 부천시 수도로 86 1층 105호(도당동),37.5149614925126,126.775720612892
경기,부천소사점,경기 부천시 소사로 214 1층(소사본동),37.4772860592743,126.795742271362
경기,부천상3동점,경기 부천시 상동로117번길 61 1층 106호,37.507823194026,126.750081690965
경기,부천원미구청점,경기도 부천시 원미구 부천로 140,37.4965015577367,126.785772015234
경기,부천센트리움점,경기도 부천시 소사구 경인로 189,37.4841458554577,126.776515462959
경기,부천벚꽃마을점,경기도 부천시 원미구 상이로 47-1,37.4930610389885,126.743764094805
경기,가톨릭대점,"경기도 부천시 원미구 지봉로  48 1층 103호, 104호",37.4860983122947,126.805045527012
경기,부천중동팰리스점,경기도 부천시 원미구 장말로 217,37.4927180367346,126.76618531507
경기,부천소새울역점,경기 부천시 소사구 소사본동  231-4,37.4706693744472,126.795668145258
경기,서울신대점,경기도 부천시 소사구 호현로489번길 39,37.4802017644619,126.791383915302
경기,부천성모병원점,경기도 부천시 원미구 부흥로 472  이디야커피 부천성모병원점,37.485651139982,126.790921806566
경기,부천오정점,경기 부천시 오정로 247 썬프라자 104호,37.5295690925108,126.785437068659
경기,부천시청역점,경기 부천시 원미구 중동  1033-1,37.5051574264473,126.763892160226
경기,부천고강점,경기도 부천시 오정구 역곡로 491,37.5285705239987,126.815637837894
경기,부천리첸시아점,경기 부천시 원미구 중동  1116,37.4950478032386,126.779416552553
경기,부천남부역점,경기 부천시 성주로 274-2 1층(심곡본동),37.4828185739063,126.782448805517
경기,부천범박동점,경기 부천시 소사구 범박동  204-8,37.4737070108281,126.812385483873
경기,역곡북부역점,경기 부천시 원미구 역곡동  82-8 2층,37.4863061766868,126.812166060568
경기,부천소사본동점,경기 부천시 소사동로 78 1층 108호,37.4727993789054,126.80316345044
경기,부천북부역점,경기 부천시 원미구 심곡동  382-12번지,37.4863544234123,126.780806856331
경기,부천송내점,경기 부천시 원미구 상동  411-1,37.4900482707224,126.752863075052
경기,안성명동점,경기도 안성시 중앙로 389번길 17(대천동),37.0081859536725,127.270174270792
경기,안성원곡점,경기 안성시 원곡면 만세로 1413 108호,37.0367835813649,127.129532492462
경기,안성공도점,경기 안성시 공도읍 공도3로 14 (만정리) 1층,37.0010730471777,127.170564565432
경기,동아방송대점,"경기 안성시 삼죽면 동아예대길 50 1,2층",37.0575372029255,127.363339827729
경기,안성아양지구점,"경기 안성시 아양1로 73 (옥산동) A동 101,102호",37.0082226909443,127.258452125967
경기,안성죽산점,경기 안성시 죽산면 죽주로 287-1 이디야커피,37.0764564758415,127.426873921678
경기,안성한경대점,경기 안성시 중앙로 324 (석정동) 이디야(안성한경대점),37.0095913777058,127.263353460511
경기,안성양성점,경기 안성시 양성면 장터길 21 1층 이디야커피,37.0592031393655,127.193957545964
경기,평택동점,경기 평택시 평택동  37-23,36.9930578308051,127.087384743191
경기,평택법원점,경기도 평택시 평남로 1041,37.0094385190804,127.095779493095
경기,평택대점,"경기 평택시 현신2길 6 101, 201호(용이동, 드림빌딩)",36.9945041155898,127.136144557768
경기,평택비전중앙점,경기 평택시 중앙로 205 1층 우측(비전동),36.9913052065076,127.105789906266
경기,평택송탄점,경기 평택시 탄현로 323 1층(신장동),37.081275582177,127.055669204045
경기,평택청북점,경기 평택시 청북읍 청북남로 253 1층,37.0188954226277,126.916224527084
경기,안중백병원점,경기 평택시 안중읍 서동대로 1931-21 1층,37.0034294701175,126.95864053347
경기,평택송탄신장점,경기 평택시 쇼핑로 25-1 (신장동) 이디야커피,37.0812673424792,127.052394453571
경기,평택포승점,경기 평택시 포승읍 여술로 20 102호,36.9877168660446,126.844748644396
경기,평택안중홈플러스점,경기 평택시 안중읍 서동대로 1489 홈플러스 내,36.9902358281868,126.916382789894
경기,평택시청점,경기 평택시 평택5로20번길 30 (합정동) 1층,36.9891022941911,127.114096261034
경기,평택성모병원점,경기 평택시 평택로 286 (세교동) 105-106호,37.0088499864034,127.073315170786
경기,평택경기대로점,경기 평택시 비전동 830-2 (패밀리타운) 이디야커피,36.9949951518329,127.112729380051
경기,평택서정이충점,경기 평택시 이충로 84-5 (서정동) 106-108호,37.064610591573,127.067067211063
경기,동탄무봉산점,경기 화성시 동탄치동천로4길 6-58 (영천동) 1층,37.2025402998235,127.127750999814
경기,동탄삼성반도체점,"경기 화성시 삼성1로 160 (석우동, 디지털스테이션) 1층 112호",37.2182083355911,127.077875496565
경기,동탄장지점,"경기 화성시 동탄장지천5길 4-20 (장지동) 1층 103,104호",37.1588507022724,127.106306389808
경기,동탄북광장점,"경기 화성시 동탄지성로 12 (반송동, 월드프라자) 1층 101,102호",37.2050483878594,127.073250501747
경기,동탄산척중앙점,경기 화성시 동탄산척로2나길 10-11 (산척동) 1층 101호,37.1747763435868,127.112922392899
경기,동탄솔빛나루점,"경기 화성시 동탄솔빛로 57 (반송동, 케이에이치스퀘어) 1층 104호",37.1941152829761,127.073561839854
경기,동탄하나로유통센터점,경기 화성시 동탄순환대로27길 30 (영천동) 1층,37.2081598236456,127.104357347025
경기,화성향남시범점,경기 화성시 향남읍 행정중앙1로 10 1층 102호,37.1259433785318,126.915825252674
경기,화성봉담동화점,"경기 화성시 봉담읍 동화길 93-12 103호, 104호",37.2168059625365,126.959750135297
경기,병점한신점,"경기 화성시 병점1로 66-2 (병점동) 1층 101-1, 102호",37.2028973127154,127.041142397428
경기,화성동탄역1호점,경기 화성시 동탄역로 124 (오산동) 제1동 1층 106호,37.1975959138164,127.096585838151
경기,동탄호수공원점,"경기 화성시 동탄대로5길 32 (송동) 지2층 B206,207호",37.1670228967301,127.103906012251
경기,동탄여울공원점,"경기 화성시 동탄광역환승로 73 (오산동, 동탄역 반도유보라 아이비파크 8.0) 207동 지1층",37.2028863829237,127.090020319633
경기,화성태안융건릉점,경기 화성시 장조1로 17-2 이디야커피,37.2054945683895,126.996534137698
경기,동탄산척점,경기 화성시 동탄순환대로14길 82-9 1층,37.1697918247142,127.12021871515
경기,화성반월점,경기 화성시 영통로26번길 33 (반월동),37.2348554649217,127.067758307053
경기,화성원평점,경기 화성시 매송면 원평리 135-1,37.2484554540471,126.92459075989
경기,화성팔탄점,경기 화성시 팔탄면 구장길 17 (문영빌딩),37.1621873212486,126.903933775494
경기,화성동탄남광장점,경기 화성시 동탄구 동탄중심상가1길 15,37.2006401895217,127.072640906732
경기,동탄2카림애비뉴점,경기 화성시 동탄대로시범길 134 판매시설지1층 115-1호(청계동),37.1990328379764,127.113063831502
경기,화성향남점,"경기 화성시 향남읍 행정중앙2로 67 1층 121, 122호",37.1296860819548,126.921138780645
경기,화성봉담점,경기 화성시 봉담읍 상봉길 31 104.105호,37.2180531097921,126.953605045851
경기,화성사강점,경기 화성시 송산면 사강로 201 A-1동 1층,37.2134579957788,126.73806338822
경기,동탄대로점,경기 화성시 동탄대로14길 5-11 1층(오산동),37.1857370045855,127.101616078886
경기,화성남양점,경기 화성시 남양읍 시청로 6 1층 108호,37.2083748821138,126.81854441845
경기,동탄프리미엄아울렛점,경기 화성시 동탄기흥로257번가길 21 F동 1층 111호 112호,37.1815423097484,127.092277201022
경기,화성조암점,경기 화성시 우정읍 조암남로 12,37.082398683202,126.817287008637
경기,동탄치동점,경기 화성시 동탄대로21가길 4-10 1층,37.2072178624974,127.09737685714
경기,화성진안점,경기 화성시 진안동  876-4,37.2135605766287,127.041769848384
경기,화성석우IT점,경기 화성시 동학산2길 8-7 (석우동),37.2247276168082,127.075202170513
경기,동탄체육공원점,경기 화성시 왕배산2길 4-20 1층(목동),37.1800890123396,127.124476520205
경기,화성향남상신점,경기 화성시 향남읍 상신하길로 74 1층 107호(원메디피아),37.1008822430338,126.896472371032
경기,화성우정화산점,경기 화성시 우정읍 기아자동차로 687,37.0689315426658,126.808586630952
경기,화성발안점,경기 화성시 향남읍 발안공단로 90 (구문천리) 1층 108호,37.0869213400034,126.909428560663
경기,병점홈플러스점,"경기도 화성시 경기대로 985 (병점동, 홈플러스) 병점점2층 일부호",37.2037286219658,127.036760015746
경기,화성동탄SKV1점,"경기 화성시 동탄순환대로 830 (영천동 , 동탄 SK V1 center) B122호",37.2099981433518,127.096937243574
경기,화성송산육일리점,경기 화성시 송산면 화성로 322 (육일리) 이디야커피,37.2059758164677,126.727610181913
경기,오산세교점,경기도 오산시 수청로106번길 6-3,37.1770545645477,127.053736247003
경기,오산궐동점,"경기 오산시 궐리사로 20 1,2층(궐동)",37.1600580586434,127.054645015883
경기,오산운암점,"경기 오산시 운암로 113 113,118호",37.1563752722095,127.077965472354
경기,오산수청점,경기 오산시 내삼미로79번길 31 109호 110호,37.1707072738334,127.064536336628
경기,오산홈플러스점,"경기 오산시 청학로 238 (수청동, 홈플러스) 홈플러스 오산점 1F",37.1700588011761,127.06179880034
경기,오산초평누읍점,"경기 오산시 발안로 1367 (누읍동, 석선빌딩) 1층 105호",37.1422755269995,127.047853042204
경기,이천이마트점,경기 이천시 증포동  47-4 1층,37.2941368417949,127.458822946386
경기,이천로데오점,경기 이천시 창전동  162-10,37.280679185234,127.444595309907
경기,이천부발점,경기도 이천시 경충대로 2096-4 (부발읍  ),37.2521071817627,127.490314921172
경기,이천갈산동점,경기도 이천시 향교로 171  1층 (갈산동),37.28550715763,127.455971672255
경기,이천송정점,경기도 이천시 증신로291번길 138,37.2954918824672,127.433343271159
경기,이천터미널점,경기도 이천시 이섭대천로 1200,37.2773643351031,127.446927314044
경기,이천창전동점,경기 이천시 영창로 243 1동 1층(창전동),37.2807957971673,127.449671318797
경기,이천장호원점,경기 이천시 장호원읍 장감로 23,37.1161195195902,127.625296200322
경기,이천롯데마트점,경기 이천시 구만리로 191 1층,37.2742845095068,127.454478138184
경기,이천마장점,경기 이천시 마장면 중앙로9번길 10 101호,37.2529793712303,127.354363104497
경기,이천가좌로점,경기 이천시 부발읍 가좌로 45 (아이펙스) 1층,37.2566967614034,127.469876613159
경기,이천이마트에브리데이점,경기 이천시 중리천로 18 (중리동) 1층,37.2799813826128,127.439831209544
경기,이천돌솥밥점,경기 이천시 신둔면 경충대로 3194 이천돌솥,37.3113577939637,127.400970095351
경기,이천신하교회점,경기 이천시 부발읍 경충대로 2264 안아주심드림센터동 1층,37.2615661523137,127.475850271412
경기,이천아트홀점,경기 이천시 부악로 40 이천아트홀 1층,37.2721230777852,127.435036587502
경기,여주중앙점,경기도 여주시 여흥로 115-0 (홍문동  ),37.2958366292089,127.636170923573
경기,여주가남점,경기 여주시 가남읍 태평1길 4 1층,37.203158963351,127.546837236494
경기,여주이마트점,경기 여주시 세종로 151 (홍문동),37.2842577686956,127.6356660224
경기,여주터미널점,"경기 여주시 세종로 85 (홍문동, 여주종합터미널) 1층",37.2903475875849,127.635602676236
경기,여주남한강점,"경기 여주시 강변북로 31 (오학동) 1,2층",37.3010363624898,127.646079144364
경기,여주교동점,경기 여주시 교동 30-32,37.2756768271124,127.638284106573
경기,여주하동점,경기 여주시 청심로 65 1층,37.3005711910291,127.627945095881
경기,경기광주초월점,경기 광주시 초월읍 경충대로1127번길 21-1 (초월역 모아미래도 파크힐스) 상가동 지하2층 12호,37.3769291899032,127.292516795465
경기,중대물빛공원점,경기 광주시 순암로 270 (중대동) 3층(중대동),37.4011268398425,127.222209661926
경기,경기광주태전센트힐점,경기 광주시 태전동 87-94 태전퍼스트 센트힐 제1동 1층 제 106호,37.3821083474869,127.228505515164
경기,경기광주산이리점,경기 광주시 초월읍 경충대로 859 1층,37.3602124482514,127.316177847642
경기,경기광주초월롯데점,경기 광주시 초월읍 경충대로 1037 1층,37.3712238713754,127.30164629934
경기,경기광주역동점,경기 광주시 경충대로 1754 (역동) 1층 3호,37.4015949893239,127.24397585435
경기,경기광주양벌초교점,"경기 광주시 오포읍 마루들길 232-4 1층 102,104호",37.3656246,127.2157483
경기,경기광주태전점,경기 광주시 태전동1길 36 (태전동) 1층,37.3853520341181,127.23375718958
경기,경기광주문형점,경기 광주시 오포읍 봉골길 59 1층,37.3505026556862,127.207223164514
경기,경기광주양벌점,경기 광주시 오포읍 양벌로 331-6 1층 102호,37.3695493503132,127.246496472651
경기,곤지암점,경기 광주시 곤지암읍 곤지암리 433-2,37.3495156061076,127.340857208568
경기,경기광주능평점,경기 광주시 오포읍 능평로 210 1층,37.3444131952443,127.177971948992
경기,경기광주세무서점,경기 광주시 포돌이로 1 (경안동) 이디야커피,37.4147121853851,127.250866428714
경기,경기광주회덕점,경기 광주시 이배재로 150 (목현동) 1층 3호,37.4290399971022,127.239420972077
경기,경기광주시청점,경기 광주시 행정타운로 49-6 (송정동) 지하1층 103호,37.4274672795569,127.251905580751
경기,광주경안점,경기 광주시 경안로 17 1층 (경안동),37.4097234048178,127.258862937987
경기,광주중대점,경기 광주시 고불로 50 1층(중대동),37.3933976574878,127.232499862491
경기,광주목현점,"경기 광주시 이배재로 304 지1층(목현동, 로얄펠리스 101동)",37.4353722590124,127.225952826888
경기,광주퇴촌점,경기도 광주시 광동로 32,37.4702820653441,127.306312007773
경기,양평용문점,경기도 양평군 용문로 535,37.497706155646,127.603961995031
경기,양평파크점,경기 양평군 양평읍 중앙로 208 1층,37.4904407320287,127.511720751544
경기,양평롯데마트점,경기 양평군 양평읍 남북로 76 롯데마트 1층,37.4894582907788,127.502652527001
경기,양평용문중앙점,경기 양평군 용문면 다문중앙1길 9-1 1층,37.4844632918994,127.592099030074
경기,양평공흥점,경기 양평군 양평읍 중앙로 90 1층,37.4942118980665,127.498605710167
경기,양평국수DI점,경기 양평군 양서면 경강로 990 1층,37.5094994308978,127.397205994809
경기,양평군청사거리점,경기 양평군 양평읍 양근로147번길 20 1층,37.4919049381116,127.489045941569
경기,남양주팔당한강점,경기 남양주시 와부읍 팔당로 151 3층,37.5446353359508,127.247785480212
경기,마석역점,경기 남양주시 화도읍 마석중앙로 101,37.6521596799589,127.311022011685
경기,다산중앙점,경기 남양주시 다산순환로 397-54 (다산동),37.6214726555634,127.158383874585
경기,다산부영점,경기 남양주시 다산중앙로82번안길 122 101호(다산동),37.6117847832203,127.165286369474
경기,남양주화도점,경기 남양주시 화도읍 경춘로 1896-8 1층 일부,37.6520449710555,127.298400587022
경기,남양주다산역점,경기 남양주시 다산중앙로123번길 22-16 (다산동) 1층 104호,37.6243741810228,127.151320937708
경기,남양주진접역점,"경기 남양주시 진접읍 경복대로 233 주건축물제1동 103호, 104호",37.719544659655,127.20249405235
경기,남양주다산한강초교점,경기 남양주시 다산지금로146번길 8-31 (다산동) 1층 일부,37.600533858149,127.173084424842
경기,삼육대점,경기 남양주시 불암로 25-39 (별내동) 1층,37.64388077797,127.110083097611
경기,남양주내각리점,"경기 남양주시 진접읍 내각1로 67 111,112호",37.7032429508688,127.163454776911
경기,남양주오남역점,경기 남양주시 오남읍 양지리 722-2 이디야커피,37.7057200487151,127.191606198996
경기,남양주평내점,경기 남양주시 경춘로1256번길 34 2층 202호 203호(평내동),37.6445758062914,127.236811079488
경기,남양주다산행정복지센터점,경기 남양주시 다산중앙로20번길 10-40 (다산동) 1층 102호,37.6142614472872,127.156747115335
경기,남양주진벌점,경기 남양주시 진접읍 진벌로 73 가동 1층 103호,37.7447921381236,127.213532782401
경기,남양주천마산점,경기 남양주시 화도읍 경춘로 1815 1층 3호,37.6564808917074,127.291721330171
경기,남양주마석초등학교점,경기 남양주시 화도읍 수레로1260번길 11-1 1층 101호,37.6498927830008,127.303212896786
경기,도농코레일점,"경기 남양주시 경춘로 433 (다산동, 도농역) 3층",37.6088256177708,127.161152955692
경기,남양주진접DI점,경기 남양주시 진접읍 금강로 1475 2층,37.7227804341153,127.189861841915
경기,덕소코레일점,경기 남양주시 와부읍 덕소로 56 (덕소역),37.5868975781597,127.208819520604
경기,남양주화도DI점,경기 남양주시 화도읍 수레로 1089 1층,37.6347100571336,127.303221774022
경기,평내호평점,"경기 남양주시 경춘로1306번길 2 (평내동, 중앙빌딩) 1층 1호",37.6498781672761,127.237754728575
경기,별내서부점,경기 남양주시 별내5로5번길 4-21 1층,37.650520887408,127.113647665714
경기,진접이마트점,경기 남양주시 진접읍 연평리 101-14 외11필지2층,37.6995874472016,127.179014337231
경기,남양주호평점,경기 남양주시 호평동  640 메인씨네마타워 111호,37.655074547272,127.24407653829
경기,진접장현리점,경기 남양주시 진접읍 장현리 장현프라자 129호,37.7274201756793,127.171821508615
경기,경복대점,경기 남양주시 진접읍 금곡리 경복대로 426 1층,37.7337960268975,127.212273507432
경기,남양주청학리점,"경기 남양주시 별내면  청학로중앙길 15, 115(주공프라자)",37.7093000705239,127.115133633728
경기,덕소삼거리점,경기 남양주시 와부읍 덕소리 덕소로 87-1,37.5863826717305,127.212349073723
경기,별내이마트점,경기 남양주시 별내동  192-2 별내이마트 내,37.6501158,127.123237
경기,남양주묵현점,경기 남양주시 화도읍 묵현리 458-4,37.6569035976606,127.274310544303
경기,별내북부점,경기 남양주시 별내동  827-2 (2~3호),37.667298834898,127.116274237213
경기,남양주마석점,경기 남양주시 화도읍 마석우리 383-1,37.6572253092247,127.301985347693
경기,남양주양지점,경기도 남양주시 진건오남로 778  오남읍 1층 111호 (선일프라자),37.6971369036619,127.205009499405
경기,남양주사능점,경기도 남양주시 진건오남로 90,37.6587236213231,127.178351792015
경기,진접센트레빌점,"경기도 남양주시 진접읍 부평로 42, 상가동107, 108호",37.7401468933443,127.20020609145
경기,남양주호평중앙점,경기도 남양주시 천마산로 27 1층,37.6644337484212,127.247189077659
경기,남양주시청점,경기도 남양주시 금곡로 50,37.6338594103921,127.208609629402
경기,남양주오남점,경기 남양주시 오남읍 진건오남로 522,37.6804053526178,127.210269502914
경기,별내메가박스점,경기 남양주시 두물로 19 1층 101호,37.6558175280706,127.12661733799
경기,별내백상앨리츠점,"경기 남양주시 별내중앙로 36-31 106, 107, 108호(별내동)",37.6462023708503,127.126414391365
경기,퇴계원점,경기 남양주시 퇴계원읍 퇴계원로 66 1층일부,37.6524389606593,127.14284643578
경기,구리등기소점,경기 구리시 인창동  건원대로 44119 태영빌딩 119호,37.605836381635,127.139606667431
경기,구리역점,경기 구리시 인창동  676-6,37.6020902542078,127.142689752869
경기,롯데하이마트구리점,경기 구리시 동구릉로148번길 33 1층 롯데하이마트 구리점,37.6112482474926,127.13954203303
경기,구리수택점,경기도 구리시 체육관로80번길 24,37.5915851279816,127.139394235211
경기,갈매중앙점,경기 구리시 갈매중앙로55번길 109,37.6306758706319,127.116358991504
경기,구리벌말점,경기 구리시 벌말로 91 (토평동),37.5852179673914,127.147140081041
경기,구리세무서점,경기 구리시 안골로 50 1층 103호(교문동),37.597116123642,127.13662709128
경기,구리시청점,"경기 구리시 아차산로432번길 13 (교문동, 지케이아이스쿨) 1층,2층",37.5937408147553,127.132131074871
경기,구리토평점,경기 구리시 벌말로129번길 62 (토평동),37.5896082966724,127.145853090178
경기,하남신장에코점,경기 하남시 신장동로 35 1층,37.5433689340804,127.211235663119
경기,미사호수공원점,"경기 하남시 미사강변남로 45 (망월동, 골든브릿지) 1층 122호",37.5601496625359,127.186621042685
경기,미사숲공원점,경기 하남시 풍산동 510-2 1층,37.5555316149547,127.189445083484
경기,하남미사스카이폴리스점,경기 하남시 미사강변한강로 135 (망월동) 나 138호 나 139호,37.57657762204,127.19204652447
경기,하남현대지식산업센터2차점,경기 하남시 미사대로 520 (덕풍동) 디씨동 1층 01-029호,37.5588264366331,127.204686431376
경기,하남검단산점,경기 하남시 검단산로 232 (창우동) 지하1층,37.5353924525317,127.228435084836
경기,하남감일동점,경기 하남시 감일로102번길 35 (감일동) 1층,37.5088663600486,127.152283976031
경기,하남덕풍초교점,경기 하남시 신장로 200 (덕풍동) 1층,37.5429852126586,127.199146416603
경기,서하남IC점,"경기 하남시 서하남로 31 (감북동) 1,2층",37.51688910355,127.147720024719
경기,하남테크노밸리U1점,"경기 하남시 풍산동 633 힐즈파크프라자 B03,04호",37.5444934681974,127.194123558714
경기,하남시청점,경기도 하남시 대청로 15 (신장동) 1층 107호,37.5405784823064,127.213922021368
경기,하남시청역점,"경기 하남시 하남대로 815 명지캐럿108, 1층(112,113호)",37.5412043665665,127.206967021151
경기,하남미사가로수길점,경기 하남시 미사강변한강로 290-3 모노라운지 1층109호,37.5642184959,127.197460306827
경기,하남검단산역점,경기 하남시 대청로 73 1층,37.5408094381911,127.220711063421
경기,하남미사강변한강로점,경기 하남시 미사강변한강로334번길 34 (망월동) 1층,37.5601280379544,127.198927192914
경기,미사청아초교점,경기 하남시 미사강변중앙로111번길 4 (풍산동) 101호,37.5567914887366,127.191671487162
경기,미사센텀비즈점,경기 하남시 조정대로 45 지하1층 122호,37.5506851829474,127.184475919003
경기,하남유니온파크점,경기 하남시 하남유니온로 70-1 에일린의뜰 단지내상가 1층 118호,37.5441500308359,127.220682777819
경기,미사망월초점,경기 하남시 미사강변북로30번길 14 1층(망월동),37.5709969833474,127.181670505268
경기,미사강변도시점,경기도 하남시 미사강변대로226번길 26,37.56980302824,127.185180609809
경기,화정별빛마을점,"경기 고양시 덕양구 화신로 319 (화정동, 문정빌딩) 1층 일부",37.6326512487296,126.826294938956
경기,EBS2호점,경기 고양시 일산동구 한류월드로 281 20층 일부,37.6617244208924,126.754626454106
경기,풍산역점,경기 고양시 일산동구 하늘마을1로 8 (중산동) 1층 107호,37.6747433190826,126.786508856007
경기,능곡역점,경기 고양시 덕양구 토당로 54 1층 (충정회관),37.6207517542098,126.820399175529
경기,일산국립암센터점,경기 고양시 일산동구 일산로330번길 12-2 (마두동) 1층 전체호,37.664903399103,126.784788445973
경기,일산하이파크점,경기 고양시 일산서구 하이파크1로 77 (덕이동) 1층,37.6966078879688,126.756406124432
경기,일산킨텍스꿈에그린점,"경기 고양시 일산서구 킨텍스로 240 (대화동, 킨텍스 꿈에그린) B129",37.6658756486743,126.751042108317
경기,킨텍스홈플러스점,경기 고양시 일산서구 호수로 817 지하1층(홈플러스킨텍스점),37.6679852145335,126.751647571454
경기,일산백마점,"경기 고양시 일산동구 일산로 234 (마두동, 백일상가) 1층 우측",37.6572219985473,126.788822751796
경기,EBS1호점,경기 고양시 일산동구 한류월드로 281 EBS통합사옥 1층,37.6617244208924,126.754626454106
경기,고양벽제삼거리점,"경기 고양시 덕양구 혜음로 166 (고양동) 1층 101호, 102호",37.7152491803471,126.901344889482
경기,고양향동점,경기 고양시 덕양구 꽃내음2길 50-3 (향동동) 1층,37.6024880446956,126.89142360351
경기,고양서오릉점,경기 고양시 덕양구 용두동 432-33 실주소 432-507,37.6281073154826,126.891266379137
경기,고양지축초교점,경기 고양시 덕양구 오부자1길 42 (지축동) 1층,37.6523703288817,126.913541161523
경기,화정중앙공원점,"경기 고양시 덕양구 백양로 65 (화정동, 동도센트리움)",37.631506540955,126.833349357582
경기,고양성저마을점,"경기 고양시 일산서구 대산로 212 (대화동, (주)오네뜨빌딩)",37.6785392019414,126.755107730487
경기,고양지축중앙점,경기 고양시 덕양구 지축로 86 (지축동) 105호,37.6487646721028,126.917420706879
경기,주엽롯데마트점,"경기 고양시 일산서구 중앙로 1496 (주엽동, 롯데마트) 롯데마트 주엽점 1층 이디야커피",37.6736581794828,126.754640891515
경기,대화마을점,경기도 고양시 일산서구 대화로 138 (대화동  ) 주건축물제1동1층전체호,37.6709240536307,126.735538705706
경기,마두역점,경기 고양시 일산동구 장백로 184 우신프라자 1층,37.6512768694197,126.777162351475
경기,화정이마트점,경기 고양시 덕양구 화정동  976 이마트1층,37.6326689947454,126.833415302295
경기,일산이마트점,경기 고양시 일산동구 백석동  (중앙로 1124) 일산층커피바코너,37.6500444005322,126.792363029713
경기,중산마을점,경기 고양시 일산동구 중산동  1560-1,37.6942560666729,126.780442673327
경기,일산원마운트점,경기 고양시 일산서구 대화동  2606,37.6643781827399,126.754418696658
경기,일산풍동점,경기 고양시 일산동구 풍동  1275,37.6678110390083,126.800417042648
경기,마두역2호점,경기 고양시 일산동구 중앙로 1190 서울타워 1층,37.6530724995104,126.77757865372
경기,능곡점,경기 고양시 덕양구 토당동  845,37.6260992241417,126.824125804194
경기,일산허유재병원점,경기 고양시 일산동구 장항동  780,37.6629159635707,126.76996052869
경기,화정중앙점,경기도 고양시 덕양구 화중로130번길 32,37.6383284620387,126.83362371319
경기,일산가좌마을점,경기 고양시 일산서구 가좌동  392-3,37.6862520449626,126.719794129256
경기,고양동산점,경기 고양시 덕양구 동산동  353,37.6438951329536,126.886711982623
경기,고양어울림점,경기도 고양시 덕양구 고양대로1384번길 15 정암코아 107호,37.6533260485184,126.837571925847
경기,고양백석터미널점,경기도 고양시 일산동구 일산로 74-17,37.6441881256614,126.79094508345
경기,일산웨스턴돔점,경기 고양시 일산동구 장항동 868 웨스턴돔 b-187,37.6547762126622,126.772641723565
경기,9사단점,경기 고양시 일산동구 고양대로 910 창일주유소 인근,37.6776888649801,126.796121386459
경기,고양내유점,경기 고양시 덕양구 통일로 1072 (내유동) 문정이클래스 1(일부)층,37.71006958527,126.853078723235
경기,문산점,"경기 파주시 문산읍 문향로 70 (문산리, 동양슈퍼마켓) 2층",37.857956577001,126.785480626409
경기,금촌역점,경기 파주시 새꽃로 197 (금촌동) 1층,37.765555107333,126.774352015184
경기,문산당동점,경기도 파주시 방촌로 1719-62,37.8672498941962,126.783723049908
경기,문산당동중앙점,경기도 파주시 문산읍 당동리 912-1,37.8628294541428,126.773784036136
경기,야당역점,경기도 파주시 경의로 1080,37.7138108555518,126.75995262432
경기,문산역점,경기 파주시 문산읍 문산역로 91 1층,37.854479950917,126.786897425198
경기,파주경찰서점,"경기 파주시 쇠재로 128 (금릉동) 103,104,105호",37.7526176706098,126.77784360616
경기,파주목동점,경기 파주시 와석순환로252번길 12 (목동동) 1층,37.7196731712742,126.737572018498
경기,파주식자재마트점,경기 파주시 조리읍 통일로 43 (농협파주하나로클럽) 이디야커피,37.7311783304292,126.835396626404
경기,파주광탄점,경기 파주시 광탄면 혜음로 1138 (새마을금고) 1층일부,37.7827714293242,126.846691272231
경기,파주운정호수공원점,경기 파주시 가온로 172 (와동동) 101호,37.7196910527866,126.751435810995
경기,파주운정가람점,경기 파주시 가람로 71 (와동동) 102호,37.7350685341253,126.757627681443
경기,파주법원점,경기 파주시 법원읍 술이홀로 872 1층,37.8489700856851,126.872736090674
경기,파주시청점,"경기 파주시 금정로 41 (금촌동, 고무래황소시골밥상) 1층",37.7586969702559,126.775249270626
경기,운정역로데오점,경기 파주시 와동동 1438 109호,37.7273488894654,126.762023120541
경기,파주금촌DI점,경기 파주시 시청로 145 (아동동) 1층 일부,37.766753306068,126.779785322858
경기,양주장흥점,경기 양주시 장흥면 권율로 6 1층,37.7173175617556,126.941529713946
경기,양주옥정로데오점,경기 양주시 옥정로 204 107호(옥정동),37.8198459298683,127.092142820773
경기,양주해동마을점,경기 양주시 고읍남로39번길 129-8 1층 일부 (광사동),37.7887596899012,127.081755656247
경기,양주회정점,경기 양주시 평화로 1571 (회정동),37.8295717182186,127.053410253898
경기,양주IC점,경기 양주시 화합로 1631 (회암동) 1층 A동,37.838408749898,127.087192766828
경기,양주봉양동점,경기 양주시 봉양동 376-1,37.8519028214339,127.077458838394
경기,양주고암동점,경기 양주시 회천남로 294 (고암동) 1층 105호,37.8208139140764,127.069878103864
경기,양주코레일점,"경기 양주시 평화로 919 (남방동, 양주역) 1층",37.7736548042753,127.044790945301
경기,양주회암사지박물관점,경기 양주시 회암사길 11,37.8412264391851,127.102980859932
경기,덕정역점,경기 양주시 덕정동  350-102,37.8425969746865,127.062604276151
경기,양주송추점,경기도 양주시 장흥면 가마골로 4 유진빌딩 이디야커피,37.7192284318708,126.975198113279
경기,양주복지점,경기 양주시 백석읍 양주산성로 603 1층,37.7864590097444,126.987266726172
경기,양주고읍중앙점,경기 양주시 고읍로 36-18 1층(고읍동),37.8005860938885,127.076196858324
경기,양주미소점,"경기 양주시 부흥로 2151 (삼숭동, 1층일부)",37.807192875417,127.092949131515
경기,의정부신곡중앙점,경기 의정부시 부용로 209-1 1층(신곡동),37.7499521118537,127.079867823846
경기,의정부민락로데오점,경기 의정부시 오목로205번길 39 (민락동) 1층 112호,37.7454840332966,127.096485556542
경기,의정부시장점,경기 의정부시 태평로90번길 6 (의정부동) 1층,37.7404326692224,127.051982421143
경기,의정부부대찌개거리점,경기 의정부시 태평로133번길 21 (의정부동) 1층,37.7441636443843,127.049962150612
경기,의정부금오행정타운점,경기 의정부시 호국로1519번길 5 (금오동) 1층,37.7535920647576,127.06925835616
경기,의정부서부로점,"경기도 의정부시 서부로 675 (가능동, 대경빌딩) 1층 105호",37.7538640067433,127.036147316892
경기,의정부신곡제일점,"경기 의정부시 금신로 308 (신곡동) 1층 101,102호",37.7446693158253,127.063691934305
경기,의정부종합운동장점,경기 의정부시 진등로 11 (녹양동) 1층 이디야커피,37.7591970141541,127.032414276872
경기,의정부장암역점,경기 의정부시 동일로128번길 13 (장암동) 1~2층,37.7003823179543,127.055858347381
경기,의정부홈플러스점,경기 의정부시 청사로 38 1층(금오동),37.7521637153577,127.071001320782
경기,의정부3동점,경기 의정부시 의정부동 165-1 1층,37.7351345590418,127.047618294623
경기,의정부흥선점,경기 의정부시 호국로 1139 1층(가능동),37.7429005781052,127.030397938272
경기,의정부범골점,경기 의정부시 범골로 110 (의정부동) 1층,37.734584835516,127.038342527749
경기,의정부중앙점,"경기 의정부시 행복로 25 지하1층,지상1층",37.740988979273,127.049131112799
경기,의정부호원중앙점,경기 의정부시 신흥로 64 1층(호원동),37.7217150351085,127.044172786597
경기,경기도청북부청사점,"경기 의정부시 장곡로596번길 9 지상1층 106호(신곡동, 세명프라자)",37.749503767693,127.069372552648
경기,의정부발곡프라자점,경기도 의정부시 회룡로 178,37.7263880453119,127.053456533266
경기,의정부시민로점,경기도 의정부시 시민로 39 108호(의정부동),37.7385463959648,127.039446979246
경기,의정부솔뫼DT점,경기 의정부시 시민로 450 1층~3층,37.7314183764785,127.082600322832
경기,의정부어룡점,"경기 의정부시 효자로 14 (민락동, 이프라자) 1층 111호",37.7435823343595,127.08666013335
경기,의정부금오중앙점,경기 의정부시 금오동  120-25,37.7563603100591,127.075244214386
경기,의정부용현점,경기 의정부시 용현동  용민로84 104호,37.7377154479933,127.087576211538
경기,의정부신곡점,경기 의정부시 추동로19번길 21 1층,37.743969336305,127.057225942314
경기,신한대점,경기 의정부시 호원동  119-31번지,37.7082589070683,127.046979972388
경기,의정부민락점,경기 의정부시 민락동  700-3 한영빌딩 104호0,37.7404127388642,127.093368396466
경기,지행역점,"경기 동두천시 지행동  721 효원월드타워제1층 106호,107호",37.8920609354567,127.053821438244
경기,동두천중앙역점,경기도 동두천시 중앙로 278 (생연동  ) 1층,37.9062263270368,127.054376076843
경기,보산역점,경기 동두천시 평화로2530번길 3 (보산동) 1층,37.9137422169718,127.057878727317
경기,포천송우리중앙점,경기 포천시 소흘읍 송우로 74 (송우리) 4-5호,37.8320210033651,127.136426624325
경기,포천성동리DI점,경기 포천시 영중면 성동리 36,38.0206975076526,127.283130814808
경기,포천하송우삼거리점,경기 포천시 소흘읍 솔모루로 164 1층,37.8345112713459,127.15276697637
경기,포천산정호수점,경기 포천시 영북면 산정호수로411번길 112-19 주건축물제1동 1층,38.068156839388,127.324814962435
경기,포천가산점,경기 포천시 가산면 탑동가산로 760 제1동 1층,37.8488842025311,127.190905194496
경기,포천초등학교점,경기 포천시 중앙로75번길 56 (신읍동),37.8963505939175,127.195270973376
경기,포천내촌점,경기 포천시 내촌면 금강로 2004 2동 1층,37.7588237597477,127.221166321748
경기,포천신북점,경기 포천시 신북면 호국로 2000 1동,37.9287758503148,127.223804397659
경기,포천이가팔리입구점,경기 포천시 소흘읍 죽엽산로 3 A동 1층,37.8274682139798,127.149343924043
경기,포천일동점,경기 포천시 일동면 화동로 1072,37.9587549110489,127.319033614656
경기,포천개성인삼농협점,경기 포천시 호국로 1423 (어룡동),37.8858326320264,127.191800488481
경기,포천신읍중앙점,경기 포천시 호국로 1499,37.8898007920942,127.198303789659
경기,포천소흘점,"경기 포천시 소흘읍 호국로 493-6 1,2층",37.9427936046032,127.232915875607
경기,포천운천점,경기 포천시 영북면 운천로 16 1층,38.0914704830166,127.272501275741
경기,광릉수목원점,경기도 포천시 광릉수목원로 698,37.7732233605193,127.159837872678
경기,대진대학교점,경기도 포천시 호국로 1000 (선단동) 1층,37.8538901148373,127.166662293064
경기,포천이동점,경기도 포천시 화동로 2058 (이동면),38.0315787111444,127.366762750775
경기,포천신읍점,경기도 포천시 중앙로 134,37.897956774201,127.203996464173
경기,전곡역점,경기 연천군 전곡읍  전곡로 156,38.0260754296805,127.068468987309
경기,가평현리점,경기 가평군 조종면 조종희망로 14 1층 이디야커피,37.8181859570151,127.350246442964
경기,청평점,경기 가평군 청평면 청평중앙로 57,37.7385144800128,127.420596320728
경기,가평점,경기도 가평군 가화로 104 1층,37.8289537776268,127.514321072466
경기,가평대성점,경기 가평군 청평면 경춘로 530,37.7183410315351,127.402011007447
경기,가평설악점,경기 가평군 설악면 유명로 1600 1층 102호,37.6725260648636,127.487800600339
경기,가평설악중앙점,경기 가평군 설악면 신천중앙로 118 (신천리) 103호,37.6780650923872,127.490918170031
경기,가평역점,경기 가평군 가평읍 문화로 13-39 1층,37.8135925682866,127.511746490178
경기,김포장기동점,경기 김포시 장기동  1620,37.6439361863816,126.667672602193
경기,김포구래점,경기 김포시 구래동  6885-3,37.6436458819206,126.627009785445
경기,김포풍년마을점,"경기도 김포시 사우중로 89, 1동",37.6226914660495,126.721212971347
경기,김포라베니체점,경기도 김포시 김포한강2로23번길 10,37.6420822529667,126.678406008753
경기,풍무역점,경기 김포시 유현로238번길 31 웅신타워 104.105호,37.6113970421595,126.732846389882
경기,김포하성점,경기 김포시 하성면 애기봉로 868 (마곡리) 스카이빌딩 1층 102호,37.7196379925942,126.633864857648
경기,김포구래아크라시티점,"경기 김포시 김포한강10로133번길 84 (구래동) 스위트엠아크라시티2차 R동 1층 101,102,103,104호",37.6416469235039,126.620441612987
경기,김포통진점,경기 김포시 통진읍 조강로 82 1층,37.6925771090977,126.597806351965
경기,운양역골든타임점,경기 김포시 운양동 1307-3,37.6533204273966,126.684943555004
경기,김포대명항점,경기 김포시 대곶면 대명항1로92번길 39-24 1층,37.6410592112685,126.541196878914
인천,인천운서카페거리점,인천 중구 햇내로안길 6 (운서동) 1층 일부,37.4950053976215,126.497988104551
인천,인천을왕리점,인천광역시 중구 을왕로 10,37.4459700128491,126.374510316753
인천,인천답동점,인천 중구 제물량로 128 (답동),37.46935894471,126.629781244736
인천,동인천이마트점,인천 중구 신생동  38,37.4665924971897,126.628489855936
인천,동인천역점,인천 중구 인현동  58-1,37.4736501756575,126.62964126438
인천,인천차이나타운점,인천 중구 차이나타운로44번길 25 (북성동2가) 1층,37.4754282899008,126.618059362252
인천,인천운남점,인천 중구 운남동  123-1,37.4934494906573,126.538493470419
인천,공항신도시점,인천광역시 중구 운서동  2795-2 1층,37.4933640662193,126.490061095781
인천,인천공항IBC점,인천광역시 중구 공항로424번길 66,37.4387969897927,126.462118925227
인천,인천만수로데오점,인천 남동구 만수동  1039-1,37.4432003410844,126.739290784193
인천,인천만수주공점,인천광역시 남동구 만수로50번길 25,37.4598222633896,126.735028078806
인천,구월롯데캐슬점,인천 남동구 구월동  1273,37.452010115088,126.719591071115
인천,인천송현점,인천광역시 동구 수문통로 54  1층(송현동),37.4803056742885,126.635421476372
인천,인천구월문화점,인천 남동구 문화로 85 1층,37.4467835062374,126.698994332002
인천,간석홈플러스점,"인천 남동구 경원대로 971 1층 X18,Y3(간석동, 홈플러스)",37.4695876807099,126.689107821779
인천,인천시청점,인천 남동구 간석동  482-20,37.4569128590361,126.704174444745
인천,남동공단점,인천 남동구 고잔동 637,37.4049368742076,126.697292555616
인천,인천논현역점,인천 남동구 논현동  624-7,37.4022274709066,126.722657496979
인천,인천CGV점,인천 남동구 예술로 206 구월중앙프라자 B동 105호 이디야커피 인천CGV점,37.4524241564681,126.701787788086
인천,인천모래내시장점,인천 남동구 구월동  1268번지 2층,37.4535070278805,126.721217706639
인천,인천주안북부역점,인천 미추홀구 염창로 55 1층 2호,37.4658488229502,126.680214124527
인천,인천간석역점,인천 미추홀구 주안로 219 (주안동) A동,37.463875451099,126.694314910429
인천,인천도화제일점,"인천 미추홀구 경인로 314 101, 102호",37.459332373171,126.674799922688
인천,인천숭의점,"인천 미추홀구 제물량로24번길 51 (숭의동, 솔루나) 117,118호",37.461999758824,126.639739685966
인천,인천보훈병원점,인천 미추홀구 인주대로 147 (용현동) 1층,37.456615882819,126.65357339238
인천,인천용현유원점,인천 미추홀구 낙섬중로 110 (용현동) 이디야커피,37.4568721775417,126.64186189762
인천,인천학익중앙점,인천 미추홀구 한나루로456번길 1 3층 이디야커피,37.4475741818546,126.668052134489
인천,송도센트럴점,"인천 연수구 테크노파크로111번길 8 101호 (송도동, 송도S타워)",37.3858730895432,126.643998647428
인천,인천연수푸르지오점,"인천 연수구 벚꽃로 130-4 (연수동, 연수푸르지오2단지) 비-108호,109호",37.416469350732,126.679252648985
인천,송도인천대점,인천 연수구 하모니로 271 (송도동) 제1동 지상1층 104호,37.3739172010867,126.63668496785
인천,송도지식정보단지역점,"인천 연수구 하모니로177번길 49 (송도동, 형지글로벌 패션복합센터) 1층 112호",37.3783371308295,126.644414087073
인천,인천연수하이마트점,인천 연수구 청능대로 64 (동춘동) 지상1층 일부호,37.4159181628364,126.672990206627
인천,인천송도홈플러스점,"인천 연수구 송도국제대로 165 (송도동, 홈플러스 복합쇼핑몰(송도점)) 홈플러스 2F",37.3802255186684,126.656372166201
인천,인천송도타임스페이스점,"인천 연수구 하모니로 158 (송도동, 송도타임스페이스) 지하1층 B09호 이디야커피",37.3832947004154,126.64225604799
인천,인천송도학원가점,"인천 연수구 신송로 165-10 (송도동, 더 아르곤) 1층 106,107호",37.397604909896,126.64755595416
인천,인천송도유원지점,인천 연수구 청량로79번길 30 (동춘동) 1층 일부호,37.414150118374,126.657530631232
인천,인천송도아트포레점,"인천 연수구 인천타워대로 257 (송도동, 아트포레) A동 119, 122호",37.3937618144703,126.633308276601
인천,인천송도점,인천 연수구 송도동  7-50 갯벌타워,37.3824071938488,126.65471391822
인천,인천서해그랑블점,"인천 연수구 봉재산로44번길 2 103, 104호(동춘동, 동춘프라자)",37.4082189935443,126.665967397896
인천,연수홈플러스점,"인천 연수구 청능대로 210 (동춘동, 지하1층 일부)",37.4059981630337,126.683622060373
인천,송도오네스타점,"인천 연수구 송도국제대로 157 지하1층 A-B08호(송도동, 오네스타)",37.3809410558608,126.656664161119
인천,인천함박마을점,인천광역시 연수구 비류대로433번길 26,37.4254536871359,126.683147053751
인천,인천옥련점,인천광역시 연수구 독배로40번길 35 (옥련동 대명상가빌딩 ) 2층,37.4246218466549,126.646830019947
인천,인천선학역점,인천 연수구 선학동  406-7,37.4263615200941,126.698324239398
인천,연수구청점,인천 연수구 연수동  601-9,37.4121752901723,126.677827368907
인천,인천동춘동점,인천 연수구 동춘동  937,37.4086299098147,126.670837290378
인천,송도해양경찰청점,인천광역시 연수구 신송로125번길 13-0 (송도동 아크리아1 ) 117호,37.3945648168771,126.651182044177
인천,인천만수역점,인천 남동구 구월로 350 1층(만수동),37.4549566486718,126.729429887779
인천,남동NIC지식산업센터점,"인천 남동구 은봉로 52 (논현동, NIC지식산업센터) 1층 116호",37.4106252735708,126.697401825008
인천,인천논현홈플러스점,인천 남동구 청능대로 596 (논현동) 지하1층,37.4006213554988,126.725648527084
인천,인천논곡점,"인천 남동구 함박뫼로 437 (논현동, 논현주공2단지아파트 상가)",37.4096308546189,126.711139470263
인천,인천간석중앙점,인천 남동구 석정로 575 (간석동) 1층 106호 이디야커피,37.4673543776018,126.699177291668
인천,인천힘찬종합병원점,"인천 남동구 논현로 72 (논현동, 힘찬종합병원) 1층 일부호",37.4010623210134,126.714686842521
인천,구월힐캐슬점,"인천 남동구 구월로 212 1층 145호, 150호",37.455992676305,126.714028470647
인천,인천남동구청역점,인천 남동구 인주대로 888 101호,37.4479412892613,126.73592378575
인천,인천도림점,인천 남동구 논고개로 311-1 1층(도림동),37.4182276874055,126.728185925802
인천,인천구월팬더점,인천 남동구 인주대로 665 1층(구월동),37.4498244005885,126.711008043307
인천,부평동암점,인천 부평구 십정동  406-3,37.4711832827389,126.700412008057
인천,부평구청점,인천 부평구 신트리로 22 (부평동) 1층 일부,37.505721932423,126.723500388031
인천,부평로데오점,"인천 부평구 시장로 17-1 (부평동, 인일 빌딩) 1,2,3 층(부평동, 인일 빌딩)",37.4928061715053,126.724672346765
인천,부평삼산롯데마트점,"인천 부평구 길주로 623 (삼산동, 대덕리치아노) 삼산롯데마트 2층",37.5078930616166,126.732015799254
인천,인천부평U1센터점,인천 부평구 주부토로 236 (갈산동) A동 328호,37.5158580433375,126.726800852864
인천,부평부개동점,인천광역시 부평구 길주남로 108-1,37.503955453583,126.733708547218
인천,인천마장초교점,인천광역시 부평구 안남로 271  1층,37.5071429306096,126.708813292395
인천,부평아이즈빌점,인천광역시 부평구 마장로 473 (청천동) 1층,37.5204811372368,126.70437568542
인천,부평일신점,인천광역시 부평구 일신로14번길 3 (일신동) 1층,37.4836847283781,126.745307568766
인천,갈산역점,인천 부평구 청천동  남광 센트렉스 1층 108호,37.518833,126.7080961
인천,부평시장역점,인천 부평구 부평대로 71-1 (부평동)1충,37.4977265823508,126.72206755708
인천,인천부개역점,인천 부평구 부개동  310-5,37.4867122157121,126.742034563571
인천,부평삼산사거리점,인천광역시 부평구 평천로 388 광백빌딩지하 1층,37.5172684899188,126.733314322257
인천,부평남부역점,인천 부평구 부평동  697-16,37.4887418899492,126.725008050515
인천,부평삼산점,인천 부평구 삼산동  464-4(근영프라자),37.50723455146,126.733863383258
인천,인천청천동점,인천광역시 부평구 청천동  180-4 대우프라자   대우프라자 114호,37.5132514979669,126.705633587924
인천,부평동점,인천 부평구 부평동  185-8외 5필지 그랑프리110호,37.4907869644401,126.725228965642
인천,계양로데오점,인천광역시 계양구 계산동  1081-10 명동빌딩   명동빌딩108호-110호,37.5359463119131,126.736894552577
인천,계양이마트점,인천광역시 계양구 봉오대로 785 (작전동 (주)신세계 이마트 작전점 ),37.5310380372084,126.736896747731
인천,인천박촌점,인천광역시 계양구 장제로 1013,37.5560487998765,126.745314428263
인천,경인여대점,"인천광역시 계양구 경명대로1045번길 21-1 (계산동  ) 1층 일부, 2층 일부",37.5455093911024,126.722865224689
인천,인천작전역점,"인천광역시 계양구 봉오대로 671 에이동 105,202호 (작전동, 우남푸르미아)",37.5310793731059,126.723710351781
인천,인천장기점,"인천광역시 계양구 장기로 34, 103, 104호",37.5791989278267,126.73463934564
인천,경인교대점,인천광역시 계양구 향교로 1,37.5383736045429,126.719249767381
인천,인천계산중앙점,인천 계양구 경명대로 1147,37.5433529484843,126.734593323098
인천,인천귤현점,인천 계양구 귤현길 6 (귤현동) 이디야커피,37.567658636802,126.747994104818
인천,인천계양더프리미어점,인천 계양구 안남로 513 (효성동) 1층 일부호,37.5289034384824,126.710976673536
인천,앰코K3점,"인천 계양구 아나지로 110 (효성동, 앰코테크놀로지코리아(주)) 이디야커피(엠코K3점)",37.5251148233445,126.704421997379
인천,인천모다아울렛점,인천광역시 서구 북항로32번안길 50,37.5099191232844,126.64772504066
인천,인천오류지구점,"인천 서구 단봉로 97-7 110,111호 (오류동, 오류센터프라자)",37.5965928471247,126.640239637607
인천,인천대성베르힐점,인천 서구 새오개로111번안길 31 104호,37.5224336596001,126.664852185603
인천,인천블루텍점,인천 서구 보듬6로 10 1층,37.5950297062188,126.613886147425
인천,인천엠파크점,인천광역시 서구 봉수대로 158,37.4896008667966,126.662843300388
인천,인천가정점,인천 서구 봉오재3로 100 1층 105호,37.5271691881189,126.670800424722
인천,인천가좌역점,인천 서구 장고개로243번길 25 1층(가좌동),37.4866578287119,126.676803703238
인천,인천국제성모병원점,"인천 서구 심곡로100번길 31 (심곡동, 마리스텔라) 지하2층",37.5424250954679,126.685630316228
인천,인천원당점,인천 서구 원당동  희림타워1층 104호,37.5924107,126.6938209
인천,인천가좌점,인천 서구 가좌동  72-18,37.4960100808557,126.682859490005
인천,인천가정고점,인천 서구 석남동  470-10,37.5128103487613,126.67866176602
인천,인천검단사거리점,"인천광역시 서구 검단로 480 103,202호 (왕길동 검단리치웰프라자)",37.6018003288816,126.657612083112
인천,인천강화점,"인천 강화군 강화읍 강화대로 392 1층,2층",37.7455169368885,126.487636570478
인천,인천강화동막점,인천 강화군 화도면 해안남로 1508 3층,37.5939294950409,126.455405060963
인천,강화길상점,인천 강화군 길상면 길상로 294 1층 106호,37.6373903477386,126.494314122168
인천,강화외포리점,인천 강화군 내가면 해안서로 1018,37.7053088604928,126.367457817729
인천,인천영흥도점,"인천 옹진군 영흥면 영흥로 256 1층 101호, 103호",37.2586558021384,126.484275759479
강원,춘천신촌점,강원 춘천시 동내면 신촌리 431 1층,37.8486100122322,127.762490119314
강원,춘천만천점,강원 춘천시 동면 춘천순환로 328 1층,37.8710187512258,127.76901891848
강원,춘천봄내점,강원 춘천시 남춘로36번길 89 (퇴계동) 1층 102호,37.8585110720545,127.738245502683
강원,춘천소양강점,"강원 춘천시 신북읍 신샘밭로 655-1 신샘밭로 661 1,2층",37.9301148672731,127.782837361352
강원,춘천우두중앙점,"강원 춘천시 우두1길 25 (우두동) 1층 101호,102호",37.9107133854872,127.738491897965
강원,춘천삼악산호수케이블카점,강원 춘천시 서면 경춘로 1401-25 춘천시 서면 덕두원리 산 164-23,37.8257139690801,127.659312246678
강원,춘천포레스트점,강원 춘천시 옛경춘로 610 (온의동) 1층,37.8530555496091,127.711494450882
강원,춘천신북점,강원 춘천시 신북읍 신북로 228 1층,37.9458416663949,127.751908492061
강원,춘천스무숲길점,강원 춘천시 스무숲1길 81 (석사동) 1층,37.8494565518057,127.749491873292
강원,춘천동면점,강원 춘천시 동면 만천로 138 1층,37.8826287335185,127.759500674787
강원,춘천교대점,강원 춘천시 공지로 133 (석사동) 2동 1층,37.857869781292,127.746377982731
강원,춘천하이테크타워점,강원 춘천시 후석로420번길 7 (후평동) B동 107호,37.8878781740342,127.745661460121
강원,춘천엔타점,강원 춘천시 석사동 980 2층,37.863391489229,127.748296233994
강원,춘천삭주로점,강원 춘천시 삭주로 197-1 (후평동) 1층,37.8869120000025,127.752164348927
강원,춘천유앤아이점,강원 춘천시 동면 후만로 167,37.8792834388412,127.762394887506
강원,강대정문점,강원 춘천시 백령로 8 (효자동) 1층,37.8652439876074,127.736176746802
강원,춘천구봉산전망대점,강원 춘천시 동면 순환대로 1154-117,37.8933878186296,127.777162306608
강원,춘천봉의고교점,강원 춘천시 후석로 244 (후평동) 이디야커피 춘천봉의고교점,37.8732781495716,127.752926648434
강원,춘천삼천점,강원 춘천시 삼천동 152-1,37.8687947165276,127.70516870633
강원,춘천코레일점,"강원 춘천시 공지로 591 (근화동, 춘천역)",37.8846833328824,127.716986362084
강원,춘천롯데슈퍼점,"강원 춘천시 영서로 2195 (퇴계동, 롯데슈퍼) 1층",37.8603213910738,127.728615215599
강원,춘천메디컬타워점,강원 춘천시 영서로 2341 (온의동) 104호,37.8683093741444,127.715874269492
강원,남춘천IC점,강원 춘천시 남산면 김유정로 334 1층,37.7422408087758,127.711121586853
강원,춘천퇴계한주점,강원 춘천시 퇴계동 86-2,37.8502745479206,127.737082611576
강원,춘천통나무집닭갈비점,강원특별자치도 춘천시 신북읍 신샘밭로 763-1 1층,37.933390940597,127.793707933518
강원,춘천한숲시티점,강원특별자치도 춘천시 안마산로 107 1층,37.8544979548148,127.727549002176
강원,춘천터미널점,"강원 춘천시 춘주로 89 1층 103, 104호",37.8622363545948,127.719866055314
강원,춘천점,"강원 춘천시 시청길10번길 4-1 1층,2층",37.8800784594936,127.728599759718
강원,춘천석사점,강원 춘천시 퇴계농공로 10,37.8523666967639,127.744030261075
강원,춘천후평동점,강원 춘천시 후평동  457 번지 소라빌딩 104호,37.8805737219149,127.750382265343
강원,춘천퇴계점,강원 춘천시 퇴계동  395-79 1층,37.8632004553188,127.731601043461
강원,춘천장학점,강원 춘천시 동면 춘천로449번길 11 1층,37.8936260715308,127.753839849191
강원,강원대점,강원도 춘천시 서부대성로 245,37.8726821852211,127.745294821138
강원,춘천애막골점,강원도 춘천시 후석로186번길 18 (석사동) 1층,37.8672978396464,127.754310119046
강원,춘천우두동점,강원도 춘천시 충열로 39,37.8994948026841,127.732738198022
강원,춘천현대점,강원도 춘천시 춘천로269번길 1,37.8801058791887,127.743051750343
강원,춘천온의롯데캐슬점,강원도 춘천시 방송길 70,37.8701588066372,127.716614869831
강원,춘천거두점,강원 춘천시 동내면 춘천순환로 134 1층 101호,37.8564942857123,127.7587608753
강원,남춘천점,강원 춘천시 행촌로 47 1층,37.8607132419982,127.725106917875
강원,한림대점,강원 춘천시 교동  11-1 번지,37.8832193042038,127.737666281562
강원,춘천거두사거리점,강원 춘천시 동내면 춘천순환로 70,37.8553624160142,127.751643555683
강원,춘천중앙역점,강원 춘천시 우묵길52번길 24 1층(퇴계동),37.8644111352966,127.724050370363
강원,춘천낙원점,강원 춘천시 중앙로 110 낙원동 118-6,37.8770235144142,127.722647684394
강원,강원도청점,강원 춘천시 서부대성로 44 (요선동 8-7),37.8831704127389,127.727906708383
강원,춘천공지천점,강원 춘천시 수변공원길 11 2동 1층(삼천동),37.8726467292822,127.70769343784
강원,춘천의암호점,강원 춘천시 서면 박사로 734 1층,37.8845019541366,127.683394243278
강원,춘천사농동점,강원 춘천시 사우로 38 1층 101호(사농동),37.9066986296167,127.728773378535
강원,춘천학곡점,강원 춘천시 동내면 영서로 1783,37.8358842319334,127.759757943534
강원,춘천여고점,강원 춘천시 동면 만천양지길 93 (만천리) 이디야커피,37.8875080402497,127.763959990665
강원,춘천김유정역점,"강원 춘천시 신동면 김유정로 1417 (증리) 유정프라자 B동 1층 101-1호, 101-2호",37.8178803305691,127.715200476872
강원,원주반곡동점,강원 원주시 오리현길 16-9 1층,37.3386678902739,127.967788560565
강원,원주치악로DI점,강원특별자치도 원주시 치악로 1435 (관설동) 2층,37.3139377400915,127.972119132809
강원,원주우산점,강원 원주시 우산로 60 (우산동),37.3690535876132,127.936994752882
강원,원주현충로점,"강원 원주시 현충로 11 (태장동) 101,102호",37.3568685958634,127.955066855488
강원,원주한라비발디점,강원도 원주시 모란1길 75 (우산동) 1층 101호,37.3617350938683,127.932558175596
강원,원주문막극동점,강원 원주시 문막읍 건등로 56-1 이디야커피,37.3144292744751,127.821593557867
강원,원주기업도시점,"강원 원주시 지정면 신지정로 190 108,109호",37.3748452421119,127.872714536385
강원,원주봉화산점,강원 원주시 바우골길 8 프렌티어스빌딩 1층 104호(단계동),37.355335750002,127.91789776329
강원,원주홈플러스점,강원 원주시 치악로 1489,37.317720689854,127.967313231294
강원,원주흥업점,강원 원주시 흥업면  남원로 85,37.303736025111,127.919953153936
강원,원주중앙점,강원 원주시 무실로12번길 33 1층(일산동),37.3500050349378,127.94779194958
강원,원주법원점,"강원 원주시 능라동길 48-1 1층 114호(무실동, 아트리움)",37.3341283216205,127.929722628789
강원,원주단관점,강원 원주시 단구로 387 1층(단구동),37.3221384026627,127.956471381213
강원,원주혁신건강보험공단점,강원 원주시 건강로 23 1층 105호(반곡동),37.3253240973355,127.987839769624
강원,원주태장점,강원 원주시 흥양로51번길 11 1층(태장동),37.38484494165,127.952913266013
강원,원주터미널점,강원 원주시 서원대로 168 2층,37.3439382253765,127.930100079083
강원,원주무실점,강원도 원주시 시청로 70 1층,37.3373692240219,127.926414009014
강원,원주단구동점,강원 원주시 단구동  남원로 528-31 신세계프라자 101호,37.3311308856919,127.94714586928
강원,강릉회산점,강원 강릉시 회산로 372 (회산동) 1층 5호,37.7410210956229,128.868387839741
강원,강릉과학단지점,강원특별자치도 강릉시 과학단지로21번길 3-4 (대전동) 1~3층,37.7951230452991,128.851919066162
강원,주문진소돌점,강원특별자치도 강릉시 주문진읍 해안로 1929,37.9018735375605,128.830215550982
강원,강릉포남점,강원특별자치도 강릉시 하평1길 16-5 (포남동) 1층,37.7711047166364,128.911990090377
강원,강릉포남소공원점,강원특별자치도 강릉시 남구길18번길 23 (포남동) 1층,37.7662587975909,128.907513626871
강원,강릉올림픽파크점,강원특별자치도 강릉시 교동 456-5 1층,37.7768517299731,128.896306723819
강원,강릉남항진해변점,강원특별자치도 강릉시 공항길127번길 40 (남항진동) 1층,37.7657478126263,128.952368324071
강원,강릉아산병원점,강원특별자치도 강릉시 사천면 방동리 415-11,37.8178576714026,128.855969456992
강원,강릉남산초교점,강원특별자치도 강릉시 남산초교길25번길 1 (내곡동) 1층,37.7453983449458,128.891276728128
강원,강릉연곡영진점,강원특별자치도 강릉시 연곡면 연주로 186-4,37.8715297666653,128.835498831832
강원,강릉경포점,강원 강릉시 경포로463번길 23 (안현동),37.8034507723963,128.902751145541
강원,강릉원주대점,"강원 강릉시 죽헌길 7 (지변동, 강릉원주대학교) 강릉원주대학교 도서관 1층 북카페",37.7657331772579,128.870217435979
강원,강릉단오공원점,강원 강릉시 임영로 64 (노암동) 1층,37.7481736064428,128.897057686357
강원,강릉송정점,강원 강릉시 팔송길 1 (송정동) 1층,37.7750867368386,128.932539028599
강원,강릉중앙점,강원도 강릉시 금성로 58 (금학동  ) 남전빌딩 104호,37.7520387894746,128.894968052037
강원,강릉터미널점,강원 강릉시 하슬라로 24 (홍제동) 1층,37.7552071875687,128.879262664534
강원,정동진역점,강원 강릉시 강동면 정동역길 17 (정동진역) 이디야커피,37.6913398885234,129.03282949125
강원,강릉입암남부점,강원 강릉시 성덕포남로 74 (입암동) 1층,37.7612897512117,128.917823871741
강원,강릉사천점,강원 강릉시 사천면 진리해변길 68-14 (사천진리) 이디야커피,37.8378109270232,128.876204064614
강원,주문진점,강원도 강릉시 주문진읍 항구로 50 1층,37.8931608478646,128.826971023663
강원,세인트존스경포호텔점,"강원 강릉시 창해로 307 109호(강문동, 세인트존스호텔)",37.7912800221661,128.920931923657
강원,강릉입암점,강원 강릉시 강변로410번길 41,37.7552141920356,128.910928979294
강원,강릉내곡점,강원 강릉시 범일로 601 1층(내곡동),37.7412867123943,128.879989822807
강원,강릉옥천점,강원 강릉시 옥천로 62 1층,37.7597700083119,128.899196854607
강원,강릉올림픽선수촌점,"강원 강릉시 선수촌로 79-15 104호, 105호(홍제동)",37.7578106546504,128.868732673093
강원,강릉교동택지점,강원도 강릉시 솔올로 39,37.7655423902201,128.877957691495
강원,강릉CGV점,강원도 강릉시 경강로 2120 (옥천동 씨네몰 ),37.7556355181026,128.898598015946
강원,동해무릉계곡점,강원 동해시 삼화로 510 (삼화동),37.4638825835327,129.0225563775
강원,동해북삼점,강원 동해시 효자남길 33-34 (쇄운동) 1층 105호,37.4889077972574,129.104494415603
강원,동해추암점,강원 동해시 촛대바위길 20-1 (추암동) 1~2층,37.4775957131985,129.158966267098
강원,동해망상해수욕장점,"강원특별자치도 동해시 동해대로 6188 (망상동, 해오름가족호텔) 이디야(동해망상해수욕장점)",37.5882787983417,129.096900613489
강원,동해천곡점,강원특별자치도 동해시 중앙로 249 1층 103호(천곡동),37.5227383456378,129.113491841698
강원,태백중앙점,강원 태백시 번영로 349 (황지동) 102호,37.1719379278583,128.99144680726
강원,태백오투리조트점,"강원특별자치도 태백시 서학로 861 (황지동, 오투리조트) 황지동, 오투리조트",37.1706733779187,128.948085384031
강원,속초중앙점,강원도 속초시 수복로 197-1,38.2052843241477,128.588646369949
강원,속초교동점,강원도 속초시 중앙로 44,38.1998953062854,128.581426616799
강원,속초해수욕장점,강원 속초시 해오름로 137,38.1868127408254,128.604975044985
강원,속초대포항점,"강원 속초시 동해대로 3741 1,2층(대포동)",38.1694562180907,128.605727119478
강원,속초조양동점,강원 속초시 조양로 213 1~2층(조양동),38.1889552325779,128.577054031154
강원,속초동명항점,"강원 속초시 동명항길 49 (동명동) 1,2층",38.2119114999882,128.599439850747
강원,속초로데오점,강원 속초시 중앙로 127 (금호동) 105호,38.202757765988,128.589973215454
강원,속초여고점,"강원 속초시 동해대로 4280 (교동, 대운빌딩) 1층 3호",38.198604459299,128.572950685983
강원,삼척교동점,강원 삼척시 청석로 59 (교동),37.4481832626388,129.175488984106
강원,삼척중앙점,강원 삼척시 대학로 30-1 (남양동),37.443732059778,129.163541846229
강원,삼척홈플러스점,"강원 삼척시 중앙로 258 (당저동, 홈플러스) 1층 이디야커피",37.4464152710331,129.168305538129
강원,삼척해변점,"강원 삼척시 새천년도로 513 (교동, 해변타운) 101호",37.4655365000055,129.171908330185
강원,삼척도계점,강원 삼척시 도계읍 도계우회로2길 8 (새롬아파트) 101동 지1층 상가3호,37.2369674303312,129.046792576327
강원,삼척장호항점,강원특별자치도 삼척시 근덕면 삼척로 2095 (장호프리자) 1층,37.2833808928556,129.31350856275
강원,홍천희망점,강원 홍천군 홍천읍 희망리 369,37.6889196781318,127.880757443662
강원,홍천연봉점,강원도 홍천군 연봉로 32,37.6820054550994,127.877247843168
강원,홍천제일점,강원 홍천군 홍천읍 공작산로 45,37.6918634376249,127.897805483583
강원,강원홍천서면점,강원특별자치도 홍천군 서면 한서로 2077,37.6207146972483,127.667416777967
강원,팔봉산점,강원특별자치도 홍천군 서면 한치골길 965 이디야커피(팔봉산점),37.6951319729657,127.701808015761
강원,강원둔내점,강원 횡성군 둔내면 둔방로3번길 3 이디야커피,37.5129960368283,128.21157205302
강원,강원영월점,강원 영월군 영월읍 중앙로 40-5 (영흥리) 1층 이디야커피,37.1830543509494,128.468334623142
강원,대관령점,강원 평창군 대관령면 눈마을길 11 1층,37.6693214101477,128.709859795118
강원,강원진부점,강원 평창군 진부면 진부중앙로 12 1층,37.6332101835538,128.554992808202
강원,평창DI점,강원특별자치도 평창군 평창읍 평창중앙로 245 1~2F,37.3721412673122,128.394924244418
강원,강원정선점,강원 정선군 정선읍 비봉로 55 1층,37.3813236606992,128.664385421518
강원,동송터미널점,강원 철원군 동송읍 이평리 683-11,38.2071692808247,127.21846986954
강원,철원와수리점,강원도 철원군 와수로181번길 25-21,38.2391512922328,127.438144632948
강원,신철원터미널점,강원 철원군 갈말읍 삼부연로 9,38.1453154781485,127.308897449147
강원,강원화천점,강원도 화천군 상승로 42-7 (화천읍  ),38.1046699941811,127.70444582986
강원,강원사내점,강원도 화천군 사내로 41-2 (사내면) (이디야커피) 1층,38.0717269566777,127.521016204202
강원,강원양구점,강원 양구군 양구읍 상리 333-3,38.1070622182515,127.989109208453
강원,강원인제점,강원 인제군 인제읍 인제로 200-1,38.0691199419337,128.172700963764
강원,고성경동대점,강원 고성군 토성면 봉포4길 18 이디야커피,38.253004765853,128.561747731362
강원,고성간성점,강원특별자치도 고성군 간성읍 간성로 66 (요거프레소) 1층,38.3796058371207,128.467746917538
강원,강원양양점,강원 양양군 양양읍 양양로 72 1층,38.0751001207118,128.62137969913
강원,양양인구해변점,강원특별자치도 양양군 현남면 인구길 56-5 남쪽 1칸,37.9673238840921,128.761839753573
충남,천안용암사거리점,충남 천안시 서북구 쌍용1길 21 포레스트빌딩 1층 102호,36.8013881246661,127.11923433132
충남,천안의료원점,충남 천안시 동남구 충절로 537 1층 로비,36.7754882211639,127.179276126736
충남,천안대로DT점,"충남 천안시 동남구 충절로 359-13 (삼룡동) 1,2충",36.7703431157798,127.260916521855
충남,천안성정쌍용대로점,충남 천안시 서북구 쌍용대로 259 (성정동),36.8205537706381,127.135696831587
충남,천안신부동점,충남 천안시 동남구 신부동 486-9,36.8176404934175,127.160707078213
충남,천안쌍용로데오점,충남 천안시 동남구 천안여상로 3 (쌍용동) 1층,36.8047247863435,127.132493822509
충남,천안청당중앙점,충남 천안시 동남구 청당5로 20 1층,36.779765071885,127.152822357196
충남,천안쌍용중앙점,"충남 천안시 서북구 충무로 172 (쌍용동, 범양건영) 1층 102호",36.7940065781911,127.126468501505
충남,천안목천점,충남 천안시 동남구 목천읍 신계리 139-1,36.7731806279733,127.208841795534
충남,천안양당점,충남 천안시 서북구 직산읍 상덕로 147 1층,36.880235991717,127.121804777324
충남,천안입장점,충남 천안시 서북구 입장면 성진로 834 1층,36.9151905876805,127.22308830784
충남,천안성정중앙점,"충남 천안시 서북구 성정공원3길 4 (성정동, 학산리젠다빌 3차) 1층 106호",36.8261598433825,127.141338247074
충남,천안대하마트점,"충남 천안시 서북구 월봉로 95 (쌍용동, 롯데마트) 1층",36.7998000403194,127.117660232955
충남,천안성환점,"충남 천안시 서북구 성환읍 성환3로 3-7 101, 102호",36.9181758309368,127.134382284168
충남,남서울대점,충남 천안시 서북구 성환읍 성월리 64-2,36.9120006483822,127.141808086906
충남,천안월봉4로점,"충남 천안시 서북구 월봉11길 21 (쌍용동, 길상트럼프) 1층 A호",36.7899510864471,127.117446080963
충남,천안성거길점,충남 천안시 서북구 성거읍 성거길 123 (대주프라자) 107호,36.8762735740133,127.202619483067
충남,천안백석대점,충남 천안시 동남구 문암로 62 (안서동) 101호 201호,36.8404286734777,127.180557331885
충남,천안불당동점,충남 천안시 서북구 불당11로 13 (불당동) 1층 104호,36.8047117511977,127.107749644505
충남,두정역점,충남 천안시 서북구 1공단1길 52,36.8324040150032,127.147973897088
충남,천안안서점,충남 천안시 동남구 중암2길 21 2층,36.8310462054552,127.176759961328
충남,천안청당동점,"충남 천안시 동남구 청수11로 13-21 101, 102호(청당동)",36.7827528979151,127.155258038519
충남,천안상명대점,충남 천안시 동남구 상명대길 32-1 1층(안서동),36.8325210927733,127.176425711518
충남,천안두정점,충남 천안시 서북구 부성6길 8 101호(두정동),36.8356542621156,127.134430270075
충남,천안불당신도시점,충남 천안시 서북구 불당32길 24 1층,36.8087333779163,127.105474651005
충남,백석대북카페점,충남 천안시 동남구 문암로 76 백석생활관동 2층 201호,36.8446890329299,127.187526228138
충청,천안직산점,"충청남도 천안시 서북구 삼은3길 10  1,2층",36.8785491689472,127.151970309675
충남,천안신방동점,충남 천안시 동남구 신방동  1898번지,36.7734972878578,127.132683918619
충남,공주신관점,충남 공주시 신관동  537-20,36.4729581295872,127.141588021787
충청,동학사점,충청남도 공주시 동학사1로 266-16,36.3583105952213,127.237590172356
충남,공주마곡사점,충남 공주시 사곡면 마곡사로 856 -,36.5574008023506,127.018358908837
충청,보령동대점,충청남도 보령시 작은오랏5길 38  1층,36.3459539762223,126.604778872957
충남,보령원산도점,충남 보령시 오천면 원산도3길 66 1층 이디야커피,36.3679342243586,126.424893560768
충남,보령시청점,충남 보령시 흥곡천변로 21 (명천동) 105호,36.3357610925006,126.609343150219
충남,아산삼성7라인점,충남 아산시 탕정면 삼성로 181 7라인(2동) 지하1층,36.8183112060673,127.072003392261
충남,순천향대향설3관점,충남 아산시 신창면 순천향로 22 향설생활관3관,36.7683515094009,126.928936482966
충남,순천향대향설1관점,충남 아산시 신창면 순천향로 22 향설생활관1관,36.7683515094009,126.928936482966
충남,아산신창휴게소점,충남 아산시 신창면 온천대로 725 이디야커피 아산신창휴게소점,36.7684709851875,126.925383763141
충남,아산용화DI점,"충남 아산시 시민로244번길 9 (용화동, 용화유통) 1층",36.7718072579513,126.995553612071
충남,아산배방월천점,충남 아산시 배방읍 북수리 1727 1~2층,36.7667000737366,127.071892835326
충남,아산삼성8라인점,충남 아산시 탕정면 삼성로 181 8라인(1동) 2층,36.8183112060673,127.072003392261
충남,아산삼성MOD점,충남 아산시 탕정면 삼성로 181 8라인(MOD동) 2층,36.8183112060673,127.072003392261
충남,아산삼성블루홀점,충남 아산시 탕정면 삼성로 181 정문주차타워동 3층,36.8116465879469,127.065465882945
충남,아산이마트점,충남 아산시 풍기동  192-2,36.7711084,127.023947
충남,아산삼성A3점,충남 아산시 탕정면 탕정로 380-2 (삼성SMD) A3공장 지하1층,36.8191879482132,127.063361951565
충남,아산메가마트점,충남 아산시 외암로 1560 (풍기동) 1층,36.7734063862846,127.01453518285
충남,아산테크노밸리점,"충남 아산시 둔포면 아산밸리남로 77 (아산테크노밸리이지더원7단지아파트) 708동 지하1층 B105,106호",36.9208527540306,127.053767710481
충남,아산온천동점,충남 아산시 아산로 118-3 1층 102호,36.7927209691188,126.995344118761
충남,아산둔포점,충남 아산시 둔포면 둔포중앙로 189 1층,36.9245132589876,127.038474363875
충남,온양온천코레일점,충남 아산시 온천대로 1496 (온천동),36.7804682813951,127.003451110541
충청,아산탕정점,충청남도 아산시 탕정면로8번길 83,36.7979069366131,127.062521082768
충남,서산동문점,충남 서산시 동문동  194-14,36.7791587824484,126.465218122019
충남,서산해미점,충남 서산시 해미면 남문2로 116 1층,36.7129095344118,126.544976498661
충남,서산호수공원점,충남 서산시 호수공원9로 14 (예천동) 1층,36.7726651540794,126.448871345236
충남,대산터미널점,충남 서산시 대산읍 정자동2로 25 1층,36.9391978380984,126.427512655055
충청,서산음암점,충청남도 서산시 음암면 운암로 210 (도당리) 1층,36.7895535718814,126.50547900942
충남,서산터미널점,충남 서산시 안견로 184-8 (동문동) 이디야커피,36.7821441007792,126.458753836724
충남,서산문화회관점,충남 서산시 문화로 49 (읍내동) 1층,36.7855220485558,126.448061960986
충남,서산테크노밸리점,충남 서산시 성연면 성연1로 21 1층 103호,36.828384523337,126.4461325941
충남,서산예천중흥점,충남 서산시 예천동 1716,36.7647027106144,126.450565533472
충남,건양대점,충남 논산시 은진면 와야리 대학로 126,36.1805703906043,127.111546189016
충청,논산역점,충청남도 논산시 해월로 231 (화지동),36.2077305358665,127.091555177886
충남,논산터미널점,충남 논산시 중앙로422번길 21 취암동,36.2028195144408,127.089058250862
충남,논산내동점,충남 논산시 중앙로 271 (취암동),36.1912580335491,127.097976676666
충남,강경점,충남 논산시 강경읍 계백로 152-1,36.157524352138,127.017001348979
충남,계룡대점,충남 계룡시 신도안면 계룡대로 663 본청 지하1층,36.2932925529775,127.242390381195
충남,계룡엄사점,"충남 계룡시 엄사면 번영로 20 103-104호, 202호",36.2843154917814,127.222484427607
충남,계룡시청점,충남 계룡시 서금암2길 7-18 (금암동) 1층,36.2736203768289,127.253239232
충청,충남당진점,충청남도 당진시 대덕1로 125-30 (대덕동),36.8850157403422,126.6471565605
충청,당진유곡점,충청남도 당진시 유곡6길 25  1층,36.9631741800025,126.692125064351
충청,당진읍내동점,충청남도 당진시 당진중앙2로 221,36.8972909857115,126.635602696517
충남,당진푸르지오점,충남 당진시 북문로1길 22 (읍내동) 1층,36.8996558971466,126.629684285424
충남,당진문예의전당점,충남 당진시 시청1로 75 (읍내동) 1층,36.8908224079902,126.639238701924
충남,당진터미널점,"충남 당진시 당진중앙2로 447 (수청동, G1부경파크빌) 상가동 109,201호",36.9007370666627,126.647015525645
충남,충남당진신평점,충남 당진시 신평면 거산3거리길 43 1~2호,36.8829980210354,126.755994718366
충남,당진석문산업단지점,충남 당진시 석문면 산단3로9길 10-8 110호,37.0066690371449,126.597605731604
충남,당진교육지원청점,충남 당진시 무수동로 7 (대덕동) 1층(대덕동),36.8857273907888,126.63691470752
충남,금산중앙점,충남 금산군 금산읍 비단로 309 101호,36.1097985129106,127.48889893653
충청,부여중앙점,충청남도 부여군 성왕로 207-8,36.2834887566604,126.910771491661
충남,부여규암점,충남 부여군 규암면 외리 110-8 1층 109호,36.2703553198508,126.886990092324
충남,서천점,충남 서천군 서천읍 군사1리 179-27,36.0777327,126.6897534
충청,장항점,충청남도 서천군 장항로 174-1,36.0109442505849,126.696862141515
충남,충남청양점,충남 청양군 청양읍 중앙로 135-2 이디야커피,36.4517563001198,126.802959393562
충남,홍성중앙점,충남 홍성군 홍성읍 오관리 291-3,36.6019710943943,126.666047424021
충청,내포아르페온점,충청남도 홍성군 상하천로 31,36.6559069787413,126.67541115175
충남,홍성점,"충남 홍성군 홍성읍 조양로247번길 9 (롯데마트, 홍성터미널) 4층 406호, 407호",36.6010389971776,126.67631788575
충남,충남홍성광천점,충남 홍성군 광천읍 광천로 323,36.502682177011,126.625574232923
충남,예산산성점,충남 예산군 예산읍 산성리 754,36.6921190202412,126.834380943034
충남,덕산읍내점,충남 예산군 덕산면 덕산온천로 448 102호,36.703931955694,126.670021640899
충남,예산삽교점,충남 예산군 삽교읍 삽교로 108 이디야커피,36.685929246882,126.740524468933
충남,예산수덕사점,"충남 예산군 덕산면 수덕사안길 42 (수덕사집단시설지구) 108호, 208호",36.6574912394096,126.620608952166
충청,태안점,충청남도 태안군 동문1길 46 (태안읍) 1층,36.7492870342621,126.303568910455
충남,안면도점,충남 태안군 안면읍 장터로 105-3,36.5162628729113,126.345473165314
대전,대전중촌점,대전 중구 목중로26번길 26 (중촌동) 1층,36.3367915405966,127.412215041696
대전,대전천근오거리점,"대전 중구 천근로19번길 5 (문화동) 1,2층",36.3100692136619,127.40247240614
대전,대전오류동점,"대전 중구 계룡로 804 (오류동, 코스모메디컬) 101,103호",36.3276896709764,127.405598982725
대전,대전중구청점,"대전 중구 선화서로 18 에이스퀘어 1층 107,108호",36.3255939850279,127.419565822824
대전,대전은행동점,대전 중구 은행동  52-4번지 2층,36.328628727723,127.428298095766
대전,대전문화동점,대전광역시 중구 중앙로 28,36.3224004890856,127.415383707578
대전,대전건양대병원점,"대전 서구 관저동로 162 (관저동, 건양프라자) 102,103호",36.3065667155718,127.341147484074
대전,대전SK점,대전 서구 탄방동  문정로 41번지,36.3471601371936,127.384102369842
