지점ID,매점명,주소,전화번호,위도,경도
288582,대치학원가점,서울 강남구 도곡로77길 8 1층 101호,,37.4989027599748,127.058651148727
288411,울산달동사거리점,"울산 남구 중앙로 158 101동 1층 101호(달동, 쁘띠팔레드 시티)",052-266-8899,35.5352460160283,129.314298119232
288012,대전청사점,"대전 서구 둔산중로134번길 21 (둔산동, 만금프라자)",042-487-7779,36.3590224188164,127.388135966282
288010,고성봉포점,강원특별자치도 고성군 토성면 봉포4길 14 1층,,38.2531791696338,128.562126162218
287022,전남무안농협본점,전남 무안군 무안읍 무안중앙로 105 (교촌리),061-454-1581,34.993649911715,126.4705072003
286798,경남고성점,경남 고성군 고성읍 동외로 170 1층,,34.9763331621629,128.3262828057
286778,포천이동점,경기 포천시 이동면 화동로 2112 (장암리),031-531-5413,38.0362471528195,127.366889345856
286777,인천남동구청점,"인천 남동구 장승로 17 3동 103호, 104호(만수동, 창대장터상가)",070-4324-3929,37.4462379806284,126.734861278948
286688,서초우성점,서울 서초구 사임당로 181 1층 101호,,37.4930381253974,127.02932311263
286609,어린이대공원정문점,서울 광진구 능동로 237 1층(군자동),02-6949-6226,37.5513250013994,127.076101717325
285684,광명센트럴아이파크점,"경기 광명시 광이로 49 상가동 101호(광명동, 광명센트럴아이파크)",070-4797-0771,37.4817514533933,126.858338072611
285679,수지동천점,경기 용인시 수지구 동천로 39 코아프라자 1층,,37.3403978536249,127.098664965577
285676,춘천강원대이룸관점,"강원특별자치도 춘천시 강원대학길 1 이룸관동 1층(효자동, 강원대학교)",033-256-5360,37.8679956160244,127.74837984446
285550,울산유곡점,울산 중구 종가3길 20 1층 일부호(우아동3가),070-8680-1225,35.5606006939026,129.296618985473
285543,전주대자인병원점,전북특별자치도 전주시 덕진구 견훤로 380 1층 일부호(우아동3가),063-242-0111,35.8451436167884,127.153488170715
285537,전북사대부고점,전북특별자치도 전주시 덕진구 조경단로 105 1층 102호(금암동),,35.8436311497035,127.138406462181
285529,삼성디스플레이아산2(A2)점,충남 아산시 탕정면 탕정로 380-2 A2공장동 1층 (삼성디스플레이 아산2캠퍼스 일반산업단지A1-2 (A2사무동 동편로비)),,36.8191879482132,127.063361951565
285523,창원럭키반림점,"경남 창원시 성산구 반송로 107 제일반상가동 1층 3-1호(반림동, 럭키반림아파트)",055-266-3286,35.238102742131,128.668032422537
284198,광화문시대점,서울 종로구 사직로8길 42 102-1호,,37.5737729016185,126.973125723031
284197,수원당수성산타워점,경기 수원시 권선구 당수로 124 성산타워 106호(당수동),031-406-9234,37.2851541249191,126.943074268597
284196,용인동백이마트사거리점,"경기 용인시 기흥구 동백죽전대로 455-11 455-11, 1층 B236호",,37.2909219365324,127.149368629633
284082,명지전문대점,서울 서대문구 가좌로 140 (홍은동),02-304-2291,37.5845714538091,126.92415926898
284081,수원성빈센트병원점,경기 수원시 팔달구 중부대로 80 상가2동 1층 22호,070-4334-3900,37.2757960248275,127.024799425288
283937,정선사북점,강원특별자치도 정선군 사북읍 사북중앙로 22 (사북리),033-592-1961,37.2267829495316,128.817172366943
283936,거제한화오션남문점,경남 거제시 거제대로 3447-1 (아주동),,34.8674019580995,128.693260106476
283935,전남무안청계농협점,"전남 무안군 청계면 영산로 1685 (도림리, 청계농협)",061-452-5605,34.9093844706829,126.429400528428
283934,순천조례명성점,전남 순천시 조례신대길 37 1층 외 1필지,,34.9618172185418,127.517819988157
283933,광주산수그린점,광주 동구 동계로 38 121동 지하 1층 18호,062-232-2111,35.1555703786685,126.925684297632
282667,안산서울예대점,경기 안산시 단원구 예술대학로 161 제1층 제104호(고잔동),031-8042-4769,37.3312596849935,126.838741670573
282662,대부도점,경기 안산시 단원구 대부황금로 1516-15,070-7799-3104,37.2879571078245,126.57684445323
282660,전남담양터미널점,전남 담양군 담양읍 중앙로 24 1층,061-382-4438,35.3152727836475,126.98366225167
282406,진해웅동로점,경남 창원시 진해구 웅동로 42-5 2층,055-546-4153,35.1244060982797,128.781952075891
282170,파주운정역점,경기 파주시 운정역길 384-8 (야당동),,37.7249237762929,126.767865631367
282159,광주비아호반점,"광주 광산구 비아로 185 1층 상가 102동 101호, 102호",062-952-0394,35.2231000684111,126.823890442342
281466,안산시곡점,경기 안산시 상록구 감골1로 33 104호,,37.2879591681789,126.851724681711
281465,순천금당점,전남 순천시 해룡면 장선배기길 284 상가동 1층 104호(청솔아파트),061-903-9409,34.9450955631547,127.530318717815
281464,통영동피랑점,경남 통영시 통영해안로 347,,34.8449910791831,128.425551905883
281244,강서가로공원점,"서울 강서구 가로공원로 191 1층 101호(화곡동,류성빌딩)",,37.5374069899716,126.837150022899
281243,광주하남산단입구점,광주 광산구 용아로 450 1층 104호,062-419-9782,35.1834830600913,126.805181445461
280628,성남을지대후문점,경기 성남시 수정구 수정로578번길 28 1층 (양지동),031-733-7994,37.4618066435475,127.166258252493
280627,서초구청점,서울 서초구 남부순환로347길 24 1층 대림빌딩,,37.4855211146477,127.031738016007
280626,청천푸르지오점,"인천 부평구 세월천로 34 1층 124호(청천동, 대우프라자)",,37.513261812583,126.70561477128
280625,문정이엠365점,서울 송파구 새말로8길 21-1 1층(문정동),,37.4808290508007,127.126870610466
279755,양평양수리점,경기 양평군 양서면 양수로 149 1층,,37.5441565558745,127.319599548828
278745,퇴계원남한강마트점,경기 남양주시 퇴계원읍 퇴계원로6번길 21 (퇴계원리),,37.6486985177984,127.143155759258
278493,안양신원타워점,"경기 안양시 동안구 전파로 88 1층 105호, 117호, 118호(호계동,신원비젼타워)",,37.3893873786035,126.942557408975
278452,울산함월점,울산 중구 함월22길 7 1층,052-710-5737,35.5783825707827,129.317626163618
277910,삼성전자평택사무3동점,경기 평택시 삼성1로 469 사무3동 2층,,37.0414128868845,127.056325198968
277905,성수코리아IT점,"서울 성동구 성수일로12길 26 1층 106호, 107호",070-4155-4100,37.5478797810661,127.053792307183
277831,안산다문화거리점,경기 안산시 단원구 원본로 25 1층 일부(원곡동),031-491-8989,37.3306880606098,126.792686389928
277795,화성향남2지구점,경기 화성시 향남읍 상신하길로298번길 11 106호,031-353-3305,37.1147622065392,126.911064445334
277794,석촌호수서호입구점,서울 송파구 삼학사로19길 2 1층 101호(삼전동),02-6268-8842,37.5058979833432,127.096959573323
277400,서울중구청점,서울 중구 창경궁로 21 104호(예관동),,37.5644780299472,126.998003267797
277399,전주신라스테이점,전북특별자치도 전주시 완산구 현무1길 10-15 1층(경원동3가),063-231-6161,35.8199436298456,127.148322144433
277398,용인수지고점,경기 용인시 수지구 수풍로 93 다온빌에이동 1층 101호,,37.3321286420581,127.093336459373
276972,원주개운점,강원특별자치도 원주시 남원로 612 (개운동),,37.33785991574,127.951511927709
276971,광주양산우미점,광주 북구 양산로 15 1층 101호(양산동),062-417-7070,35.2110791361119,126.876141020554
276593,천안종합운동장점,충남 천안시 서북구 백석3로 43,,36.8218792989277,127.116402818814
276378,나주루멘하임점,"전남 나주시 그린로 325 1동 102호(빛가람동, 부영프라자)",061-334-3111,35.0155583326338,126.794742038979
275820,시흥물왕호수점,"경기 시흥시 산현마을길 58 1층 102호(산현동, 청담트윈스2)",070-4032-7457,37.3764504699754,126.845231324864
275701,천안두정먹자골목점,"충남 천안시 서북구 두정로 168 1층 103호(두정동, 은혜빌딩)",041-418-9645,36.8335623272183,127.135475873599
275602,청주비하효성점,충북 청주시 흥덕구 2순환로1050번길 13-1,043-902-7327,36.640866429385,127.421544043515
275598,광주상무시민공원점,"광주 서구 상무공원로 92 101호(치평동, 대주상가)",062-385-3526,35.1523574892284,126.843190105721
275467,삼척정상점,"강원특별자치도 삼척시 동해대로 4044-10 1층(정상동, 꿈꾸는뜰)",,37.4414980402606,129.178572095881
275463,창원힐스테이트더퍼스트점,경남 창원시 성산구 대상중앙로 10 일원  대상힐스테이트창원더퍼스트 128동 102호,055-715-1779,35.223724321018,128.671141501974
275454,완주이서점,전북특별자치도 완주군 이서면 이서로 90-7 1층 가운데 호실,063-222-4213,35.8201958040913,127.026868938916
275453,안양중앙시장점,경기 안양시 만안구 냉천로193번길 12 1층 일부호(안양동),031-466-1727,37.397042177474,126.918851651783
275451,과천래미안슈르점,경기 과천시 별양로 28 상가동 1층 1010호,070-7798-5129,37.4211854985339,126.991242601845
275366,전주삼천남양점,전북특별자치도 전주시 완산구 삼천천변1길 34 111동 106호,,35.7949999964588,127.114462974123
274734,수내돌고래시장점,"경기 성남시 분당구 돌마로356번길 3 (수내동, 그랜드빌딩)",031-715-3872,37.3697248747272,127.12333496297
274732,영암삼호현대점,전남 영암군 삼호읍 신항로 120 1층,061-461-5555,34.7484982201675,126.375922040737
274592,곤지암삼리점,경기 광주시 곤지암읍 평촌길 30-3 1층,,37.3566131845307,127.325851599314
274591,국회의사당역점,서울 영등포구 국회대로 780 1층 118호,,37.5298309198,126.919265654284
274583,청주강내점,충북 청주시 흥덕구 강내면 가로수로 538 1,043-904-4900,36.6211438568932,127.357346689619
274574,경산펜타힐즈점,"경북 경산시 펜타힐즈2로 65 1층 112호 (중산동, 펜타힐즈더원)",070-4797-4944,35.8295194625216,128.719944485127
274079,화성석포점,경기 화성시 팔탄면 석포로 10-2 2층 일부호,,37.13163507394,126.842634469926
274013,제주일도인제점,제주특별자치도 제주시 고마로 101 1,,33.5054070069096,126.541426347689
274007,광주금호중학교점,광주 서구 금부로 97 1층 (금호동),062-373-3777,35.1398773630369,126.859599497682
273901,파주별하람마을점,경기 파주시 가람로 121-1 1층 103호,,37.7400549605681,126.760059865709
273900,약수역2번출구점,서울 중구 다산로 147 1층(신당동),02-3298-5013,37.5569646047173,127.011602541632
273899,동탄숨마데시앙점,"경기 화성시 동탄신리천로3길 71 상가동 105, 106호",,37.1820104325477,127.134840586645
273588,병점역복합타운점,"경기 화성시 병점노을4로 19 1층 117호(병점동, 골든스퀘어1)",,37.2055285247338,127.030894480426
273587,광주수완성덕점,광주 광산구 장덕로 48 1층 101호(장덕동),062-961-4090,35.1946606690033,126.814960453034
273144,영덕군청점,경북 영덕군 영덕읍 군청길 109,054-733-1255,36.4143426917992,129.3673225743
267563,창원동정점,"경남 창원시 의창구 서상로 33 (서상동, 오성상가)",,35.2630837634145,128.616587687566
267560,판교역점,경기 성남시 분당구 대왕판교로606번길 31 1층 118호,,37.3966887360553,127.110662408872
267559,광주전남대생활관점,광주 북구 용봉로 77 전남대학교생활관공용동 1층 (9호관),062-716-5930,35.1739175430866,126.911235470135
266875,원주단계공원점,강원특별자치도 원주시 무실로 174 (단계동),033-735-2359,37.3412681337218,127.939799424267
266874,천안삼거리공원점,충남 천안시 동남구 충절로 369 113,041-415-1774,36.7703431157798,127.260916521855
266762,대구알파시티점,대구 수성구 알파시티2로 24 102호,053-218-2118,35.8395759792762,128.691829728511
266761,이문래미안라그란데점,"서울 동대문구 이문로35길 12 근린생활시설C동 110호(이문동,래미안라그란데아파트)",070-4010-7114,37.599823362368,127.061241161796
266760,천안4공단점,충남 천안시 서북구 직산읍 상덕로 6 1층 105호,070-4231-1422,36.8679947679382,127.118091755368
266697,진해마천공단점,"경남 창원시 진해구 남영로 557 (남양동, 오예통통집)",070-4333-8874,35.1196739781677,128.781646401854
266696,광주운천역점,광주 서구 상무민주로5번길 21 1층 109호(쌍촌동),062-714-3372,35.1506417132667,126.856468982162
265962,잠실본동점,서울 송파구 백제고분로18길 3,,37.5047757440376,127.085081149732
265956,대전관저월드프라자점,대전 서구 관저북로 25 104호,042-719-8227,36.3039889288776,127.336744208004
265946,석전KS마트점,경남 창원시 마산회원구 북성로 262 (석전동),,35.2301397560298,128.567701747624
265945,대구동성로중앙제일점,대구 중구 중앙대로 394 1층(남일동),070-8872-2002,35.8683261440927,128.593973022676
265887,성신여대입구역6번출구점,서울 성북구 아리랑로 6 (동선동4가),,37.5933250037065,127.016554554005
265322,총신대입구역1번출구점,서울 서초구 동작대로 128 2층(방배동),02-3478-9033,37.4878938385008,126.982604987582
265320,컴포즈커피 나주남평로중앙점,전남 나주시 남평읍 남평2로 54-1 좌측코너,061-930-8891,35.0470336995685,126.842015223759
265316,삼성전기세종사업장점,세종특별자치시 연동면 삼성길 25 삼성전기 세종사업장 한울림프라자 2층 일부,,36.5406489816549,127.334292714623
265315,정읍시기코아루점,전북특별자치도 정읍시 정읍남로 1393 (시기동),063-536-8542,35.5585723018327,126.854638213319
264561,익산원광대점,전북특별자치도 익산시 무왕로 894 103호(신동),063-841-1122,35.9635570015653,126.95775241464
264560,경동시장사거리점,서울 동대문구 고산자로 420 힐스테이트 청량리 메트로블 125호,,37.5771553592083,127.038746521172
264559,전주서신쌍용점,"전북특별자치도 전주시 완산구 당산로 11-1 상가2동 1층 1호, 2호(서신동, 쌍용서신아파트)",,35.8327883967724,127.10937631345
264558,엄궁초점,부산 사상구 엄궁북로 23 1층(엄궁동),051-714-5657,35.1286392146005,128.972884536299
264557,신포로데오점,인천 중구 개항로 9-1 1층(중앙동4가),,37.4714042648041,126.623802333892
263818,인천계산도두리점,인천 계양구 용종로 2 108,070-8866-1103,37.5340079939903,126.741463532554
263459,안산와동점,경기 안산시 단원구 와동공원로 134 1층 일,031-411-1333,37.3433739524306,126.821611814616
263075,인천정석빌딩점,인천 중구 서해대로 366 정석빌딩 신관 1층,032-710-5349,37.4596230877545,126.632658908323
263072,인천작전행운점,인천 계양구 장제로 708 103호,032-282-9090,37.5310010641257,126.734266689608
262682,은평대림시장점,서울 은평구 응암로 180 (응암동),02-6956-4589,37.5880606193782,126.917032662931
262678,행주산성나루터점,경기 고양시 덕양구 행주산성로 190 1층(행주외동),,37.6026231902021,126.815226152313
262643,춘천강원대공과대학점,강원특별자치도 춘천시 백령로 67 1층,,37.8695074021596,127.737698090137
262021,대구교동점,대구 중구 국채보상로123길 16 1층,070-8722-8851,35.87142299026,128.597616736111
261942,횡성알프스점,강원특별자치도 횡성군 우천면 한우로 1270 (우항리),,37.4595171550729,128.066612485342
261911,연대서문점,서울 서대문구 성산로17길 39 (연희동),,37.5639501090353,126.93292234103
261909,수원못골시장점,경기 수원시 팔달구 중부대로39번길 6 1층,031-254-0100,37.2754878058534,127.021431282304
261907,양주덕계역점,"경기 양주시 덕계로4길 4 104호(덕계동,케이타워)",,37.8176909043632,127.057042259855
261906,울산선암점,울산 남구 두왕로154번길 29 1층(선암동),052-265-0725,35.5144630855721,129.310302926524
261905,의왕스마트시티퀀텀점,경기 의왕시 광진말로 54 S동 127호,031-8058-8085,37.3209328118125,126.940659894464
261084,창녕영산점,경남 창녕군 영산면 영산장마로 745 1층,055-521-1056,35.4575088786328,128.525346062282
260758,광양태인점,전남 광양시 삼봉산로 5 D동 3호(태인동),061-795-0808,34.9351538636874,127.745817594625
259470,군산나운영창점,"전북특별자치도 군산시 의료원로 131 상가2동 101호(나운동, 영창아파트)",063-468-1526,35.9577530556328,126.701564918985
259469,대천해수욕장점,충남 보령시 머드광장로 14 (신흑동),,36.3159881906388,126.51255588185
259468,학익시티오씨엘1단지점,"인천 미추홀구 학익로 116 126동 1층 (학익동, 시티오씨엘1단지)",070-4833-6173,37.4419513843446,126.643265425669
259154,전주신일강변점,전북특별자치도 전주시 완산구 강변로 98-1 1층,,35.7999761012301,127.113843057356
259153,청주율량사천점,충북 청주시 청원구 율봉로 97 104호,043-216-3069,36.6669069992313,127.480094458769
259129,천안직산점,충남 천안시 서북구 직산읍 아랫말1길 17 (삼은리),041-582-0101,36.8775747637349,127.150519317676
259078,청주커넥트현대점,충북 청주시 흥덕구 2순환로 1225 6층 616호,,36.6269631809148,127.430731962744
259075,안산목내점,경기 안산시 단원구 별망로 453 1층 104호,070-7537-3259,37.3040412881406,126.775451572785
258691,전주상산타운점,전북특별자치도 전주시 완산구 거마평로 121 상가 2동 1층 102호,063-221-6008,35.803341510073,127.116568049124
258453,인천송도유원지점,인천 연수구 인권로 11 1층,070-4066-3531,37.4188396758243,126.651534117879
258261,서울올림픽파크포레온점,"서울 강동구 양재대로 1319 1층 103호(성내동, 대성빌딩)",,37.5241954271851,127.134439064819
258216,울산삼호점,울산 남구 어은로 33-1 1층(무거동),052-277-0326,35.552220414411,129.274483941864
258157,마산산호베스티움점,"경남 창원시 마산합포구 회원천북길 491 1층 103호(산호동, 산호베스티움상가)",070-8230-0915,35.2092326616502,128.581877323665
258156,속초수복탑사거리점,강원특별자치도 속초시 중앙로 216 1층,,38.2097130963606,128.593311225597
258155,천안성정롯데점,충남 천안시 서북구 성정두정로 12,041-903-1115,36.8265771178337,127.141513875988
258154,성남법원점,경기 성남시 중원구 산성대로 456-1 1층 전체(금광동),070-7626-5244,37.4523597632825,127.160621037377
258149,시흥옥구점,"경기 시흥시 정왕대로 64 129,130호(정왕동, 메가쇼핑몰)",031-498-0915,37.3542509037182,126.723528822124
257107,원주엔터비즈타워점,강원특별자치도 원주시 입춘로 45 1층 148호,,37.32767880959,127.978389908755
257104,의정부부대찌개거리점,경기 의정부시 태평로133번길 20 1층(의정부동),,37.7443258924342,127.050000836188
257100,광명트리우스점,경기 광명시 광이로 96 2단지내 상가 3동 104호,02-6953-6565,37.4850286802383,126.861368524334
256466,금곡북부소방서점,부산 북구 효열로 275 1층(금곡동),051-363-8331,35.2672000808962,129.018347180749
256261,경희외국어대학관점,경기 용인시 기흥구 덕영대로 1732 외국어대학관내 1층,,37.2398001522416,127.081198790803
256128,목동문화체육센터점,서울 양천구 목동중앙본로 68-1 목동근생및다가구주택 1층 좌측점포,02-2644-4550,37.5419076516506,126.869331411769
256061,신림신화교점,서울 관악구 신림로 199 1층(신림동),,37.4755283029632,126.936194282286
256060,평택브리티시고덕점,경기 평택시 고덕국제대로 77 1314호,,37.0443559204264,127.041883008056
255919,에코델타푸르지오점,부산 강서구 에코델타1로 66 상가동 105호,070-8691-3585,35.1476705701951,128.91469842294
255918,서천장항점,충남 서천군 장항읍 장서로 66 (창선2리),,36.013697235639,126.698867164138
255917,광주흑석중흥점,광주 광산구 풍영로145번길 15 상가동 1층 101호,,35.1841539226972,126.813415158946
255859,이천관고시장점,경기 이천시 영창로 162 1층,,37.2815687075818,127.440516110898
255855,경희전자국제점,경기 용인시 기흥구 덕영대로 1732 108호 전자정보대학관,070-8287-1564,37.2398001522416,127.081198790803
255850,인천논현중앙점,인천 남동구 논고개로136번길 5-11,070-4694-2084,37.4038918861671,126.724530874795
255459,나주동강농협주유소점,전남 나주시 동강면 남악동강로 1432 (월양리),061-335-5182,34.929931420697,126.567034082501
254795,일산문화광장점,"경기 고양시 일산동구 중앙로1275번길 38-10 1층 103호(장항동, 우림로데오스위트)",031-932-0699,37.659914452377,126.770892649054
254794,마곡아이파크디어반점,"서울 강서구 마곡중앙8로7길 57 B동 1층 111호(마곡동, 마곡아이파크 디어반)",070-7585-6865,37.5661908750068,126.839184670321
254616,동탄영천골드프라자점,"경기 화성시 동탄영천로 81-5 1층 111호(영천동, 골든프라자)",,37.2096911075296,127.102974026011
254615,대구수성보성타운점,대구 수성구 수성로 412 117동 102호,070-7777-5792,35.8619910023338,128.614492153972
254614,평택칠원하모니점,경기 평택시 새말로 17 1층(칠원동),031-665-1752,37.0284531149181,127.103685601018
254552,나주송월부영점,전남 나주시 나주로 41-17 상가동 101호,061-331-8111,35.0241195855255,126.714979384392
254549,광주운암미라보점,"광주 북구 서강로 155 상가동 9호, 20호(운암동, 미라보아파트)",062-522-1106,35.1846934752545,126.876331370468
254021,구서역점,부산 금정구 구서로 11,0503-5260-9495,35.2465832258434,129.089626908624
253993,동대신동점,부산 서구 구덕로315번길 10-8 1층,051-253-0901,35.1122460078993,129.016211541875
253987,부산시민회관점,부산 동구 조방로 14 125호,0507-1315-1614,35.1387281351032,129.06345343296
253986,부산대2호점,부산 금정구 금강로 248-10,051-581-1102,35.2300315089077,129.085417487083
253796,원주무실제일풍경채점,강원특별자치도 원주시 무실로 353-2 근린생활시설 2동 111호,,37.3307339272402,127.932283139509
253795,익산삼기농협로컬푸드점,전북특별자치도 익산시 삼기면 하나로 1334,8:30 - 20:00,36.0374279409151,126.983312780337
253377,아산온양농협하나로점,충남 아산시 남부로 246,041-533-0450,36.770398975553,127.009381420193
253372,숭의오거리점,인천 미추홀구 독배로 437 101호(가우디),,37.4585694220288,126.648650660256
252594,양평용문점,경기 양평군 용문면 용문로 356 (다문리),031-771-8410,37.4841661027,127.593382224252
252593,신검단중앙역점,인천 서구 고산후로 222 푸리마더타워 103호,032-563-2722,37.6034771237195,126.698913229224
252508,아산세교행복타워점,충남 아산시 배방읍 세교중앙로 36 행복타워2 107호,041-534-1210,36.7788771671572,127.093838075942
252480,광주신안점,광주 북구 무등로202번길 42 (신안동),062-522-7111,35.1633555764244,126.904551480025
252470,안성죽산점,경기 안성시 죽산면 죽주로 242 (죽산리),,37.0744468187041,127.422245982233
252468,부천대사거리점,경기 부천시 원미구 장말로 314-3 1층,,37.490869533859,126.776901825944
252462,서천특화시장점,충남 서천군 서천읍 충절로 34 (군사리),,36.0753693911809,126.68639508013
252243,인천루원복합청사점,인천 서구 봉오재3로 130 106호,,37.5270880767822,126.67384522312
252242,인하대문화거리점,인천 미추홀구 인하로 73 (용현동),070-4632-7168,37.4514599501627,126.656475010522
252027,대림대학교홍지관점,경기 안양시 동안구 임곡로 29 대림대학 종합강의동(홍지관) 2층,,37.4032913499382,126.930684164957
251239,울산효문공단점,울산 북구 효자로 107-1 1층,,35.5708830917943,129.367216432364
251238,군산지곡점,전북특별자치도 군산시 신지길 11 1층 102호(지곡동),063-468-7111,35.9585738143748,126.70561653859
251237,대전배재대학교점,"대전 서구 배재로 155-40 (도마동, 배재대학교)",,36.3232382774419,127.366074460163
251192,창원대학교점,경남 창원시 의창구 퇴촌로 41 1층,055-286-3534,35.2422144274746,128.68964467544
251003,파주상지석점,경기 파주시 운정로 139 1층,,37.7214425461987,126.781164598609
251002,거제상동다이소점,경남 거제시 상동5길 91 1층,055-950-3073,34.8628109446859,128.631524639713
251001,인천대공원점,인천 남동구 무네미로 238,032-467-0500,37.4585938313615,126.751967126768
250137,일산차병원점,경기 고양시 일산동구 중앙로 1205 일산차병원 2층 208호실,070-8899-5411,37.654131720459,126.775737399414
249791,킨텍스역꿈에그린점,경기 고양시 일산서구 킨텍스로 240 판매시설동 1층 128호,031-819-0101,37.6658756486743,126.751042108317
249349,군포삼성마을점,경기 군포시 삼성로20번길 4-16 (부곡동),031-392-5356,37.3368332589087,126.933904364084
249347,해방촌오거리점,서울 용산구 신흥로 89,,37.5456441361382,126.985451093754
249346,해방촌오거리점,서울 용산구 신흥로 89,,37.5456441361382,126.985451093754
249342,철산자이더헤리티지점,경기 광명시 시청로 70 철산자이더헤리티지 상가2-10호,,37.4820193247975,126.871335111183
248880,충북영동점,충북 영동군 영동읍 중앙로 41-1,043-742-6811,36.1756747588181,127.777769921177
248879,홍제폭포점,서울 서대문구 연희로 262-37,,37.5818438257072,126.936766863236
248856,무안오룡우미린점,"전남 무안군 일로읍 오룡번영1로 96 (오룡리, 오룡 우미린 더 시그니처 2차)",,34.7963626455721,126.484364644396
248847,춘천애막골점,강원특별자치도 춘천시 후석로186번길 10 (석사동),033-262-5654,37.8675213395209,127.753103084803
248843,용인호수마을점,경기 용인시 기흥구 평촌1로2번길 6-1,,37.2846893252949,127.153557088806
248840,원주천매사거리점,강원특별자치도 원주시 남원로 441-6 1층,,37.3257350684058,127.940561541578
248491,세종아름송남타워점,"세종특별자치시 보듬3로 154 1층 112호(아름동, 송남빌딩)",044-998-0486,36.5122578162982,127.242654324251
248113,진주도동점,경남 진주시 하대로 83 101호,055-752-0101,35.1932806931106,128.120760109078
248111,광주유스퀘어터미널점,광주 서구 무진대로 904 유스퀘어 내 1층,062-352-6232,35.1605756425809,126.879873116288
248106,전주에코스위첸점,전북특별자치도 전주시 덕진구 세병로 174-19 103호,063-909-6165,35.880260954572,127.13406262105
248103,시흥장현코리아프라자점,경기 시흥시 장현능곡로 1 102호,,37.3730309031412,126.790980420545
248028,홈플러스월드컵점,"서울 마포구 월드컵로 240 2층 푸드코트 내 XE, y31호",02-304-9991,37.5682884450841,126.897273034482
248024,원주치악회관점,강원특별자치도 원주시 치악로 1692 치악회관 1층,,37.3365561034611,127.961028309143
247374,인천주안남초점,인천 미추홀구 인주대로418번길 10,070-4647-4556,37.4506656543862,126.682889753031
247294,서귀포위미점,제주특별자치도 서귀포시 남원읍 태위로 99 (위미리),,33.274777749995,126.657988918231
246673,병점송화초점,경기 화성시 병점1로 66-12 1층 101-2호,070-8657-3327,37.20214705055,127.041534440889
246672,광주경안중앙점,"경기 광주시 중앙로 88 1층(역동, 대영빌딩)",070-8777-0912,37.4078048456876,127.259489650711
246671,울산반구점,울산 중구 화합로 431 (반구동),052-937-1127,35.5633429244016,129.33649445499
246666,목포옥암한라비발디점,"전남 목포시 남악2로22번길 10 상가동 102호(옥암동, 한라비발디)",061-984-0081,34.807118115824,126.453859181766
246487,안성롯데캐슬점,경기 안성시 대덕면 서동대로 4723 (신령리),070-7798-1353,37.013192557537,127.225591710796
246411,대전선화하늘채점,대전 중구 대종로594번길 51 120호,042-222-8878,36.3365042066403,127.419478191021
246408,평택세무서점,경기 평택시 죽백5로 27 105호,031-654-4135,37.0038079054278,127.118924918302
245911,순천대점,"전남 순천시 중앙로 255 48동 천연물신약연구소 1층(석현동, 순천대학교)",061-752-2688,34.9667612819538,127.480923056778
245909,대전신성자운대점,대전 유성구 유성대로1184번길 14,070-8680-1211,36.3936272404416,127.352181154324
245670,양재영동점,서울 서초구 바우뫼로41길 16,070-7720-3556,37.4812615238062,127.041300979887
245668,검단법원광장점,인천 서구 이음4로 10 102호 (검단KR법조타워2),032-202-4800,37.590901651037,126.71042741448
245286,충주호암한신더휴점,충북 충주시 호암토성2로 7 (호암동),070-8672-9658,36.9558005259113,127.93500970479
245141,동평화시장점,"서울 중구 청계천로 318 동평화1층 가동 110-2, 111-2",02-2231-7567,37.5693565845148,127.013791492597
245022,포천선단대진대점,경기 포천시 호국로 997 영일빌딩 1층,070-7537-3650,37.8539765871127,127.166037987898
244979,판교원마을점,경기 성남시 분당구 운중로 239 도메인타워 104호 (판교동),070-8211-0653,37.3898392791258,127.089800830863
244360,김해시청점,경남 김해시 호계로422번길 18-1 (부원동),055-724-3901,35.228220053743,128.887206545595
244356,순천왕지점,전남 순천시 왕궁길 43 1층,061-721-0111,34.9547640814674,127.532074663211
244349,서산해미점,충남 서산시 해미면 남문2로 154 1층,,36.710459655063,126.547811797929
244348,서울공항점,경기 성남시 수정구 대왕판교로 1210,,37.420469664296,127.101681946569
244347,검단모아엘가그랑데점,인천 서구 이음4로 93 2317동 105호,070-8698-0399,37.5930675885989,126.718832799498
244346,동탄장지점,경기 화성시 동탄장지천6길 62 1층,031-375-4529,37.1580002806067,127.108300421259
244344,용인모현에듀프라자점,경기 용인시 처인구 모현읍 백옥대로2476번길 17 애듀프라자 108호,031-338-8333,37.3447335038277,127.252762131446
243355,전남담양매화점,전남 담양군 담양읍 매화길 10 1층,061-383-8111,35.2984541105449,126.999071193806
243163,진해중원로타리점,경남 창원시 진해구 백구로 55 1층,070-4044-7088,35.1497252659516,128.659001415611
243017,평창대관령점,강원특별자치도 평창군 대관령면 대관령로 92 1층,,37.6725773149273,128.706405399573
242896,동탄더퍼스트타워점,경기 화성시 동탄기흥로 614 110호,031-8043-3145,37.2149307186729,127.094985814758
242837,광양동부농협로컬푸드점,전남 광양시 옥곡면 신금로 110 1층 컴포즈커피,061-772-7786,34.9720362730253,127.720794512685
242760,진주주약점,경남 진주시 진주대로815번길 12-2 1층일부(주약동),055-921-4433,35.1734336270678,128.092682204751
242646,광교플렉스데시앙점,경기 수원시 영통구 창룡대로256번길 50 B1층 L7호,,37.2954630286643,127.039055523597
242251,원주축협본점,강원특별자치도 원주시 원일로 233 (학성동),,37.3567298898133,127.943102437692
242247,강원인제점,강원특별자치도 인제군 인제읍 비봉로 28 (상동리),,38.0668309151132,128.173522012475
242246,울산미즈병원점,울산 남구 남산로 2 1층,070-7543-0597,35.5523004009199,129.270906576378
241781,방학동부점,서울 도봉구 도봉로145길 14,02-6014-3558,37.6646961650387,127.041789117177
241633,서울숲한라시그마밸리점,서울 성동구 뚝섬로 385-32 (성수동2가),02-462-8911,37.5393972441928,127.054357276248
241575,광주본촌광신대점,광주 북구 양산택지로 105 1층,,35.2151461987729,126.882549325831
241574,세종봉암점,세종특별자치시 연서면 당산로 358 1층,044-866-1043,36.5633334432869,127.283243884473
241001,원주흥업점,강원특별자치도 원주시 흥업면 남원로 80 1층,033-900-1979,37.3030788140713,127.920372622498
241000,하남풍산점,경기 하남시 덕풍동로 111 113호,031-791-0522,37.5511978838069,127.208444997124
240508,중구이테크타워점,서울 중구 퇴계로 264 1층,02-2138-1517,37.5625493695069,127.001020128304
240504,원주송문사거리점,강원특별자치도 원주시 소초면 치악로 2318 1동,070-8211-0638,37.3822449684367,127.97469955434
240496,광주충장NC점,광주 동구 충장로46번길 15 1층(충장로4가),062-222-6058,35.149339390394,126.912122004163
239694,일산동구청점,경기 고양시 일산동구 정발산로 47 웅신아트 115호,,37.6577562129592,126.773723421027
239550,전남화순농협하나로마트점,전남 화순군 화순읍 쌍충로 74 1층,061-373-8111,35.058766608846,126.982224739746
238820,광주유동점,광주 북구 중가로 60 (유동),062-515-2209,35.1590465479349,126.906761730565
238819,수원경희대점,경기 수원시 영통구 영일로6번길 35,031-202-3287,37.2483480682611,127.077885988637
238671,광양중마성호점,전남 광양시 광장로 70 아파트상가 빅마트 옆,061-795-7952,34.9333229356159,127.690269917349
238355,김포고촌행정복지센터점,경기 김포시 고촌읍 장차로 19,070-4354-1917,37.6037208119895,126.77057700604
238354,마석소방서점,경기 남양주시 화도읍 수레로1260번길 15 병권빌딩 101호,031-559-0328,37.6499652168489,127.303600166188
238353,인천검단제일풍경채2차점,"인천 서구 고산후로 305 (불로동, 신검단중앙역풍경채어바니티2차)",070-7543-3457,37.6119377136588,126.695180100233
238297,전주인후부영점,전북특별자치도 전주시 덕진구 무삼지로 43 1층,,35.8293806888162,127.163886041614
238296,순천신대해룡점,전남 순천시 해룡면 신대2길 6-41 1층 110호,061-902-9244,34.9356667831081,127.547528964916
238162,구의이스트폴점,서울 광진구 아차산로 402 롯데캐슬이스트폴 101동 3호,02-455-5565,37.5366104651759,127.087852468702
237629,부천건주병원점,경기 부천시 소사구 경인로536번길 42 층(괴안동),032-349-7779,37.4841083323334,126.816106807985
237599,강원태백포레스트애시앙점,강원특별자치도 태백시 고원로 119 상가동 103호,033-553-3014,37.1662629782041,128.98963154977
237594,구리한양대병원점,경기 구리시 경춘로 162,070-8865-0710,37.6004704201522,127.133318534735
237488,진주반성점,경남 진주시 일반성면 동부로 2004 1층 일부,055-747-5847,35.1698466148366,128.280714372042
237404,서수원꿈에그린점,경기 수원시 권선구 서수원로37번길 6-16 (오목천동),,37.2335221712575,126.977704772342
237400,등촌역점,서울 강서구 공항대로 553 (염창동),,37.5498948815097,126.867604379466
237342,안산고잔보화점,경기 안산시 단원구 보화로 23,031-402-5331,37.3313295792908,126.829844952807
237330,대구교대점,대구 남구 중앙대로 217,053-721-7818,35.852597359128,128.589983711683
237259,군포평생학습원사거리점,경기 군포시 고산로 251 용호프라자 103호,031-393-0528,37.3459216067245,126.94406954231
237257,김포모담도서관점,경기 김포시 모담공원로 118 (운양동),031-8049-6440,37.6498163027012,126.691992561194
237222,부천중동시장점,경기 부천시 원미구 부흥로 205 1층,032-213-2112,37.4961730645516,126.765611387432
237170,천안안서점,충남 천안시 동남구 각원사길 66,041-622-8879,36.8305679781545,127.179055044454
235912,광주임동한국점,광주 북구 천변우로79번길 89 1층,062-522-0671,35.1664891487317,126.891487865513
235882,판교봇들마을점,경기 성남시 분당구 판교로 376 1층 102호,031-705-6536,37.403956404667,127.116169115681
235629,송우사거리점,경기 포천시 소흘읍 솔모루로 53,031-542-5509,37.8270929104177,127.144550143192
235628,오류ic점,"서울 구로구 경인로 240 (오류동, 예성라온팰리스)",02-2060-2016,37.4974753918896,126.847564779889
235507,시흥길산지식산업센터점,경기 시흥시 경기과기대로 219 105호,031-498-3117,37.3344486458876,126.732653149087
235488,대구범물점,"대구 수성구 용학로 272 (범물동, 범물창신태성한라맨션)",053-781-3535,35.8204984866405,128.639383392911
235314,전주소양천점,전북특별자치도 전주시 덕진구 초포다리로 190 1층,063-251-5859,35.8726709072291,127.157511413482
234853,신경주역점,"경북 경주시 건천읍 경주역세권1로 90 (화천리, 신경주 유보라아이비파크 1단지)",,35.8055598426161,129.140070566528
234418,충주연수예성로점,충북 충주시 예성로 398,,36.9918142938862,127.934318579063
234274,당진석문점,충남 당진시 석문면 해명4로1길 40,041-430-7726,36.9785651966979,126.589510811998
234267,광주신가풍영리버빌점,"광주 광산구 수등로 287 상가동 1층 114호(신창동, 신가부영아파트)",062-456-0603,35.18808441982,126.838814684984
234266,완주삼봉지구점,전북특별자치도 완주군 삼례읍 상탁길 47 1층,063-206-2060,35.9191445663011,127.117656560102
234261,광주도산점,"광주 광산구 도산로 10 1층 103, 104호",062-457-5669,35.1291752930808,126.79172631353
233542,인천루원시티SK2차점,인천 서구 봉오대로 270 302동 B204호,,37.5239167403055,126.680236578352
233538,일산장항로점,경기 고양시 일산동구 장항로 273,,37.6422821613012,126.769274659974
233374,화명하늘채후문점,"부산 북구 화명신도시로 70 상가1동 1층 106호(화명동, 코오롱하늘채1차아파트)",,35.2307920262206,129.011545185865
232294,삼성전자천안캠퍼스점,"충남 천안시 서북구 번영로 465 (성성동, 삼성전자(주)천안캠퍼스)",,36.8417769471557,127.118837229524
232170,월미짱랜드점,인천 중구 월미문화로 81 랜드마크 1층,,37.4714716858953,126.596289892617
231764,청라제일풍경채점,인천 서구 청라커낼로 321 104호105호,032-583-1000,37.5372119317935,126.644403163754
231568,안산사동중앙점,경기 안산시 상록구 석호로 208 범희빌딩 103호,031-407-7666,37.294660477302,126.853772835936
231566,부산대역2번출구점,부산 금정구 부곡온천천로 32 1층,,35.2290287600795,129.08986984541
230667,대구칠곡매천점,대구 북구 매전로 80 1층 103호(태전동),053-326-3335,35.9128615732562,128.546869282112
230586,강원화천터미널점,"강원특별자치도 화천군 화천읍 중앙로 13-1 (하리, 이삭토스트외)",033-442-3331,38.1046412762836,127.705868439366
230585,강원횡성운동장점,강원특별자치도 횡성군 횡성읍 문화체육로 31 (읍하리),033-342-0400,37.4957422629338,127.985829883491
230567,평택더샵센트럴점,경기 평택시 동삭1로22번길 19-17 102호,031-658-2829,37.0206357619745,127.09297798714
230566,공릉태릉사거리점,서울 노원구 공릉로 98,,37.6191983201855,127.078450401706
229586,광주선운어등진아점,"광주 광산구 선운중앙로 82 상가동 1층 130호, 104호(선암동)",,35.145520943213,126.783352084471
229582,대구신매역점,대구 수성구 고산로 90 상가동 1층 103호,,35.8376759944349,128.704417766089
229574,횡성새말IC점,강원특별자치도 횡성군 우천면 한우로 1400 (우항리),033-343-2333,37.4495501740298,128.074001257613
228448,익산배산점,"전북특별자치도 익산시 선화로 17 117동 104호(모현동2가, 배산오투그란데)",063-852-2525,35.9521107314255,126.932872284549
228447,대전한밭수목원만년점,대전 서구 만년로67번길 34-26 대전서구 만년동 316,8:00 - 251:00,36.3687353638929,127.381613085624
228442,서울세관사거리점,서울 강남구 학동로 235 (논현동),02-514-2282,37.5155803629301,127.035011566563
228433,오산칸타빌더퍼스트점,경기 오산시 초평중앙로 140 1층 106호,031-372-1990,37.1432882532149,127.04823783504
227095,용인신갈역점,경기 용인시 기흥구 새천년로 22 101호,031-3061-2820,37.2890956841222,127.111639364053
227091,삼성전자화성(17L)점,경기 화성시 삼성전자로 1 삼성전자 내 (123)S3동 1층 일부호(반월동),,37.2234648640396,127.063384197856
227087,옥정제일풍경채점,경기 양주시 옥정동로 187 107호 - 연락처 : 070-7857-8801,070-7857-8801,37.8236481879745,127.098655093666
226461,충북보은점,충북 보은군 보은읍 보은로 107 (삼산리),,36.4837484965107,127.717766569888
226458,광주신가선창초교점,광주 광산구 신창로35번길 97 1층,062-961-1155,35.1865811338555,126.834267946601
226245,부산북부면허시험장점,부산 사상구 사상로367번길 42 1층,051-711-7177,35.177999982749,128.982091531376
226077,울산삼산디자인거리점,울산 남구 삼산중로74번길 6 1층 106호,052-256-2977,35.5401354151502,129.336307997619
226035,분당느티마을점,경기 성남시 분당구 느티로51번길 4-13,070-8211-0494,37.3690941772702,127.111324848889
224933,당진신평점,"충남 당진시 신평면 덕평로 1384 (거산리, 김밥마을)",041-363-8355,36.8783017292167,126.752620114605
224927,충북광혜원점,"충북 진천군 광혜원면 중리3길 21 (광혜원리, 옥산빌딩)",043-534-0324,36.9894917205641,127.443951468643
224921,용인초당점,경기 용인시 기흥구 동백중앙로 55 (중동),103호,37.2611770582244,127.161869845228
224917,화성반월SK뷰파크1차점,경기 화성시 동탄원천로 382-37 SK뷰파크 제상가2동(후문 상가동) 저1층 제112호,031-222-3007,37.220486456915,127.055465105515
223723,일산공단중앙점,경기 고양시 일산동구 장항로 187 (장항동),,37.6386806347437,126.777659519956
223720,동탄대방디에트르점,경기 화성시 동탄오산로 29 (동탄2 택지개발지구 업무복합2블록) 동탄2신도시 동탄역 디에트르 더 플레이스 마당 판매시설 D동 123호(오산동),031-374-1201,37.1993103412943,127.090189650458
223714,속초법대로점,"강원특별자치도 속초시 법대로 20 (동명동, 인트레빌하버뷰)",033-633-7936,38.2126343082718,128.5932411185
223073,양평물맑은시장점,경기 양평군 양평읍 양평시장길 4-1 17,031-772-2883,37.490730777678,127.49136422992
223059,화성사강시장점,경기 화성시 송산면 사강로 201 B동,070-4353-7176,37.2134579957788,126.73806338822
223048,천안불당호반점,충남 천안시 서북구 불당34길 25-6 106호,041-622-9238,36.8075979384073,127.105620680625
222741,진해석동먹자골목점,경남 창원시 진해구 냉천로 45 1층,,35.1514541975734,128.702274765367
221994,천안신부점,충남 천안시 동남구 터미널2로 25,041-903-5939,36.8212275444154,127.158012260848
221989,전주대신정문점,전북특별자치도 전주시 완산구 봉곡1길 1 (효자동3가),063-903-5717,35.8133406806641,127.097171920262
221984,방학역점,서울 도봉구 도봉로150길 27 (방학동),,37.6661908861393,127.044752583125
221982,파주역점,경기 파주시 파주읍 주라위길 78,031-952-7760,37.8152754341538,126.795391876809
221973,시흥월곶풍림점,"경기 시흥시 월곶중앙로70번길 3 (월곶동, 진주마을 풍림1차 아이원 단지내 상가동)",070-4647-2633,37.389604498274,126.738166472757
219378,상도e편한세상점,서울 동작구 만양로 6 1층 110호,02-6368-5029,37.5049818982281,126.946788478219
219372,서초방배로점,"서울 서초구 방배로 113 (방배동, 수정빌딩)",,37.4841777479071,126.995614970299
218345,광주용봉택지로점,광주 북구 설죽로 207 1층(용봉동),062-513-8111,35.1781712953221,126.897189002959
218338,고양대곡역롯데캐슬점,경기 고양시 덕양구 토당로 124 287-1 근린생활시설,031-972-1237,37.6233503487199,126.818085603463
218336,김해구산푸르지오점,"경남 김해시 삼계로 30 111호(구산동, 탑스존)",055-724-0320,35.257088925859,128.869544563795
217498,용인성복역아이파크점,"경기 용인시 수지구 상현로 144 (상현동, 성복역 아이파크)",031-303-9877,37.3098531595035,127.084783403125
217078,고양서오릉점,경기 고양시 덕양구 서오릉로 293 (용두동),,37.6195353289206,126.904378924167
217036,월계인덕대점,서울 노원구 초안산로2라길 26 102-1호,,37.6300099286586,127.05667170993
216967,대전통합청사점,대전 중구 대종로517번길 61 1층 105호,042-224-8884,36.3283972655773,127.421260008487
216966,전남장성나노산단점,전남 장성군 남면 나노산단5로 15 (삼태리),,35.2368779390399,126.833150148779
216831,청주분평농협사거리점,충북 청주시 서원구 월평로 4,,36.6110023949541,127.485293278207
216659,한성대입구역점,서울 성북구 삼선교로 4 1층,07:30 - 22:30,37.5880036489546,127.006413269622
216596,양주광적점,경기 양주시 광적면 가래비길 118 (가납리),031-829-2270,37.8253770092151,126.984150898716
216539,진주정촌점,경남 진주시 정촌면 화개천로 126 1층,070-8199-1117,35.1281317170235,128.103916120269
216262,김해주촌공단점,경남 김해시 주촌면 골든루트로 193-26 (망덕리),070-8770-2067,35.2225213578469,128.823616131638
216243,전북고창월곡점,전북특별자치도 고창군 고창읍 중앙로 316 (교촌리),063-563-6111,35.4346901251202,126.710056510668
215162,청주율량현대점,충북 청주시 청원구 주성로132번길 28-2 (율량동),,36.6694369331866,127.481938994482
214746,순천신대로점,전남 순천시 해룡면 상성길 324 가동 1층,061-721-5111,34.9439325869544,127.539453033571
214652,좌동점,부산 해운대구 좌동순환로 174 106호,051-711-3528,35.1776261586837,129.175055528806
214425,대전둔산자이파크점,대전 서구 계룡로500번길 72 (갈마동),042-348-7788,36.3417565042298,127.377827452089
213983,용호시장점,"부산 남구 용호로 173 (용호동, 장안빌딩)",051-916-7142,35.1167776198285,129.111426168803
213922,평택지제점,경기 평택시 지제동삭1로 41 근생 130동 18호,070-8211-0579,37.0209415370776,127.072796037236
213921,강릉회산점,강원특별자치도 강릉시 회산로 346 115동 101~102호,,37.7393120091573,128.866210429725
213712,천안터미널점,충남 천안시 동남구 만남로 18,070-8648-3447,36.8184250154353,127.154021427402
213691,목포이로초등학교점,전남 목포시 이로로9번길 16 (용해동),061-273-6532,34.8036176074959,126.406294060991
213684,컴포즈커피 나주금천농협빛가람점,전남 나주시 중야2길 24 (빛가람동),061-333-5554,35.0169444669357,126.785155095316
212984,양산북부점,경남 양산시 중앙우회로 142 1층 일부호,055-388-0010,35.3482302628284,129.03886110796
212982,대전용산호반써밋점,대전 유성구 배울1로 132 108호,,36.4164239809465,127.394032177416
212957,창원대산점,경남 창원시 의창구 대산면 진산대로 360 주건축물제1동 1층 일부호,,35.3320293666074,128.709437065452
212945,양산사송내송점,경남 양산시 동면 내송큰들로 73 상가동 412호(사송더샵데시앙 4단지),055-785-1232,35.3218444101609,129.070113441879
212624,봉천제일종합시장점,서울 관악구 남부순환로 1768 1층,070-8866-6765,37.4816628316088,126.946360798834
212538,서산테크노밸리점,"충남 서산시 성연면 성연3로 36 (왕정리, 이안 서산테크노밸리)",041-429-2200,36.8242895561301,126.450575493047
212491,대구만촌역점,대구 수성구 달구벌대로 2565 1층 103호(만촌동),,35.859308900719,128.643294968186
212355,대구만촌역점,대구 수성구 달구벌대로 2565 1층 103호,,35.859308900719,128.643294968186
212300,광주백운대성초교점,광주 남구 제중로 136 1층,062-676-4089,35.1430603909023,126.906896502632
212132,개봉현대아파트점,서울 구로구 개봉로20길 78 1층,02-6012-3955,37.4932603468144,126.858686334102
211402,동국대학교정보문화관점,"서울 중구 필동로1길 30 (필동3가, 동국대학교)",,37.5589366401553,126.998737605491
211218,전남해남터미널점,전남 해남군 해남읍 중앙1로 2-10 1층 102호,061-958-9831,34.57163150946,126.607681485516
211209,대전복합터미널점,대전 동구 동서대로 1679 (용전동),042-624-1110,36.3493796298443,127.436049103898
211170,광주효덕로점,광주 남구 효덕로 213 1층 103호,062-681-7000,35.1027743407117,126.898363234738
211166,봉화산역점,서울 중랑구 신내로 211 144호,070-7798-1988,37.6163496295774,127.092668240549
211119,대구검단점,대구 북구 검단로 135 104동 116호 (검단팩토리밸리),070-8648-1287,35.9087309428126,128.621547555621
210947,대전도마호반점,대전 서구 도산로 65 (도마동),042-525-0426,36.314397158421,127.378375191628
210275,정읍중앙로점,"전북특별자치도 정읍시 조곡천1길 62 (시기동, 동경이야기)",063-537-7550,35.5670071559563,126.851208572918
210274,익산부송라온점,전북특별자치도 익산시 마한로 203 (부송동),063-831-5685,35.9663980073679,126.985908060786
208444,창원상남한마음병원점,경남 창원시 성산구 원이대로682번길 21 1층,055-268-7879,35.2208292561345,128.687191115308
208439,광주일곡마을로점,광주 북구 일곡마을로 9 1층,070-7525-8100,35.2060667509694,126.900181789898
208438,군산조촌더샵점,전북특별자치도 군산시 궁포1로 79 104호,063-442-6622,35.9786110555602,126.746597336171
208240,수원화서역점,경기 수원시 팔달구 덕영대로697번길 7 아트프라자 101호,070-4415-9515,37.2848571193497,126.990567727133
208229,인천구월정각사거리점,인천 남동구 구월로 223 위너스프라자 101호,032-465-4504,37.456507605553,126.715634950689
207996,평강역우창점,부산 강서구 대저중앙로 7 나동 1층 일부(대저1동),051-831-0365,35.214920380528,128.949959378978
206706,잠실역사점,서울 송파구 올림픽로 지하 265 5번출구 라인 B-20,,37.5313695,127.1208518
206413,기흥삼성반도체점,경기 화성시 삼성1로6길 27,,37.2280630548516,127.073866254303
206376,컴포즈커피 새벽시장로점,부산 사상구 새벽시장로 25 1층 컴포즈커피,051-913-5420,35.1559444753576,128.976878344702
205517,부천카톨릭대점,경기 부천시 원미구 부일로685번길 33 A동 101호,,37.4857040611625,126.805281958856
205465,금산추부점,충남 금산군 추부면 하마전로 35,070-7576-4959,36.190904128625,127.470744682872
205336,용인상갈점,"경기 용인시 기흥구 금화로 101 (상갈동, 그린빌프라자)",031-287-7579,37.2661909854484,127.106955510469
205151,울산세양청구점,울산 남구 남중로126번길 5 1층,052-274-6048,35.5456416517601,129.349020758894
204451,광주봉선중앙로점,"광주 남구 대남대로159번길 24 A동 1층 104,105호",062-673-6854,35.1315083296698,126.907226192963
204293,서귀포화순점,제주특별자치도 서귀포시 안덕면 화순로 151 (화순리),010-2737-7651,33.2464207821674,126.330121589603
203490,길음뉴타운점,서울 성북구 길음로 33 길음뉴타운 제상가비동 제지2층 제8호,,37.6050832927232,127.022078590713
203411,아산탕정지웰시티점,충남 아산시 탕정면 한들물빛5로 36 G동 1층 101호,070-8211-2527,36.785861605471,127.086857849079
203320,당진센트레빌점,충남 당진시 수청중앙로 85 상가동 1층 컴포즈커피,010-9094-2542,36.8994252553094,126.650490238351
203233,오산호반라포레점,경기 오산시 죽담3로 6 오산W빌딩 101호,070-4012-7008,37.1636899272508,127.050431824729
203190,속초대포항점,"강원특별자치도 속초시 동해대로 3747-1 1, 2층",010-2796-8357,38.1699882663765,128.605382783022
202782,구리검배사거리점,경기 구리시 검배로 124 1층 102호,031-566-7307,37.5940045501833,127.151537631682
202716,울산수암시장점,울산 남구 수암로 126 A2동 5호,052-700-7095,35.5277830289212,129.320823266961
202715,전남곡성군청점,전남 곡성군 곡성읍 군청로 26 1층,061-363-4436,35.2805447216704,127.292952728244
201951,분당정자두산타워점,경기 성남시 분당구 정자일로 158 1층 103동,,37.3643456065408,127.106311805523
201387,천안시청점,충남 천안시 서북구 불당25로 174 1층,,36.8164345734252,127.108441106748
201242,목포용해점,전남 목포시 포미로 16 1층,061-279-0800,34.8174302294771,126.397895042609
200890,제주베라체점,제주특별자치도 제주시 승천로 74 1층,064-711-7995,33.4921926501796,126.542579496739
200875,평택시청점,경기 평택시 평택5로20번길 34 1층,031-692-8886,36.9895343645273,127.114001651074
200845,울산신복초교점,울산 남구 신복로72번길 26 1층,052-976-4691,35.5517500538518,129.25465506965
200621,울산진하점,울산 울주군 서생면 해맞이로 1586 1층,052-237-1888,35.3832832680046,129.341962344775
200260,평택바로E빌딩점,경기 평택시 탄현로371번길 55 101호,010-3929-7617,37.0872954933864,127.059829952545
200259,제주드림타워점,제주특별자치도 제주시 원노형남1길 11 (노형동),064-743-7977,33.4842403355416,126.481664052816
199985,봉천e편한세상점,서울 관악구 쑥고개로 70 1층 102호,02-882-4123,37.4793603701447,126.944171484048
199542,전남영암대불점,전남 영암군 삼호읍 대불주거로 173 1층,061-463-3333,34.7540002841003,126.456571358087
199242,화도휴게소점,경기 남양주시 화도읍 경춘로 2186 1층,031-591-7956,37.6539576366424,127.330550853928
199238,평촌트리지아점,경기 안양시 동안구 귀인로 90 1층,070-8211-2365,37.3818136162208,126.949819920594
198212,대구봉리단길점,대구 중구 대봉로43길 21 401동 106호,,35.8570771712144,128.601141160906
197758,가야태화현대점,부산 부산진구 가야대로 635-12 1층 101호,051-892-6486,35.1563682609173,129.041666419404
197614,광주금호화개점,광주 서구 화개중앙로 71-1 1층,062-674-3111,35.1255459223512,126.85429368075
196529,불광초점,서울 은평구 불광로2길 2 1층,,37.6119384749006,126.931930946199
196518,화성비봉상업지구점,경기 화성시 비봉면 간곡1길 27,031-357-3009,37.2449858335814,126.873648445136
196455,파주운정월드점,경기 파주시 경의로 1204 월드타워10차 113호,031-957-9726,37.7250451745055,126.761519826815
196410,제주대학교점,제주특별자치도 제주시 제주대학로 109 (아라이동),,33.4603618093422,126.561653323949
196103,파주법원사거리점,경기 파주시 법원읍 사임당로 832 1층,031-959-7055,37.8491653463992,126.873176262637
195895,광주신가모아엘가점,광주 광산구 목련로355번길 61 1층 102호,062-531-6497,35.182161364493,126.830121154913
195495,일산레이킨스몰점,경기 고양시 일산서구 호수로 817 레이킨스몰 121호,010-5810-6308,37.6679852145335,126.751647571454
195464,화성남양로점,경기 화성시 남양읍 남양로 589 1동 3호,031-8043-2218,37.1923667676749,126.821298669379
195463,숭실대중문점,서울 동작구 사당로 20 1층,070-7703-0901,37.4951368747128,126.956713345138
195462,효창공원점,서울 용산구 효창원로69길 6 1층,,37.5416366247001,126.961832424482
195373,광주하남어등점,광주 광산구 사암로215번길 31 1층(우산동),062-463-3678,35.1635789764773,126.806598420175
195289,광교경기도청점,경기 수원시 영통구 도청로66번길 6 114호,031-548-0913,37.2892170573398,127.051275350203
195279,천안북일고점,충남 천안시 동남구 북일로 71,,36.828987982356,127.158008041215
194701,행당시장점,서울 성동구 행당로17길 32,,37.5611049829427,127.032627176876
194612,나주마한농협양산점,"전남 나주시 왕곡면 장산양산길 37 (양산리, 마한농협 양산지점)",061-337-5690,34.9733470476573,126.705655954323
194213,대구태전중앙점,대구 북구 태암남로 1 1층,,35.9257561145916,128.547631189995
192565,동래메가마트점,"부산 동래구 충렬대로 197 (명륜동, 메가마트 동래점)",,35.2045556872671,129.081169445553
192423,마산양덕수출후문점,경남 창원시 마산회원구 양덕동2길 15 1층,055-713-7305,35.2222339915898,128.589888680088
191355,일산만자고개점,경기 고양시 일산서구 덕이로 225-3 2층 203호,031-911-0667,37.6972813985657,126.737810389326
191354,경기광주밀목점,경기 광주시 중앙로 327,,37.42872803178,127.258393391725
191317,수원시청역점,경기 수원시 팔달구 효원로 278 파비오더씨타 109호,,37.2610199796381,127.03244509152
191124,인천청학용담공원점,인천 연수구 용담로 44 102호,032-221-0032,37.4195638009854,126.672484638441
190979,양산경동스마트점,경남 양산시 신덕계로 34 상가동 102호,055-383-8382,35.3778715660605,129.158311832844
190974,마산합성두산위브점,"경남 창원시 마산회원구 팔용로 89 상가동 1층 107호(합성동, 창원두산위브더센트럴 1단지)",055-256-5048,35.2373184087307,128.587434683057
189773,장림두산제니스점,부산 사하구 장림로 199 402동 1층 16호,051-966-9995,35.082895063328,128.972097096354
189765,경북청도냉정점,경북 청도군 청도읍 냉정1길 7 1층,054-372-7770,35.6470403422374,128.73883673598
189753,당정역점,경기 군포시 고산로211번길 31 1층 107호,,37.3439051000564,126.950970660418
189410,전남곡성옥과점,전남 곡성군 옥과면 대학로 140 (리문리),061-363-8888,35.2758112313489,127.134976907251
189409,청주가경점,"충북 청주시 흥덕구 장구봉로 71 14동 103호(가경동, 덕일한마음아파트)",043-903-0705,36.6233842283754,127.440814061702
188614,천안역점,충남 천안시 동남구 은행길 2 1층,041-622-6777,36.8080887729229,127.147821417473
188401,종로르메이에르점,"서울 종로구 종로 19 1층 108-2호(종로1가, 르메이에르종로타운1)",070-8887-8111,37.5708444878121,126.979923668151
188398,수원영통벽적골점,경기 수원시 영통구 덕영대로1555번길 16 생활편익시설동 1층 132호,031-548-4404,37.2467903895217,127.061588532438
188158,광주첨단쌍암점,"광주 광산구 월계로 217 1층 104호(쌍암동, 첨단프라자)",062-972-2767,35.2136839201365,126.849322107296
188076,인천성지초등학교점,인천 계양구 아나지로247번길 11 1층 108호,070-7734-1349,37.5266076164384,126.719198839711
187356,대전중리점,대전 대덕구 한밭대로 1158,070-8704-8700,36.3585057911718,127.427272156813
187078,고양DMC플렉스데시앙점,경기 고양시 덕양구 향동로 217 RB134호,02-6048-2829,37.609049205589,126.892379900515
186917,마천중앙시장점,서울 송파구 마천로41길 1,,37.497401391458,127.147777073785
186602,광주운암롯데캐슬점,광주 북구 동운로213번길 36 1층(운암동),062-513-7111,35.1759646873674,126.873655562749
185406,상계보람점,서울 노원구 한글비석로 474 보람상가 147호,070-7585-8229,37.6648233542549,127.065441493669
185018,파주동문그린시티점,경기 파주시 조리읍 대원로 22 나동 107호,031-947-1689,37.7267175412623,126.819399693785
185016,광주평동점,광주 광산구 평동로 801 1층,062-447-7333,35.1246451007779,126.761942813938
184942,진천터미널점,충북 진천군 진천읍 중앙북로 20,043-753-7719,36.8589523975945,127.439204967324
184515,과천RF사옥점,경기 과천시 과천대로12길 110 제1동 1층 105호,,37.4147996509937,126.990491700241
183205,춘천거두리점,강원특별자치도 춘천시 동내면 공지로 70-51 (거두리),,37.8547702822487,127.75132529628
182673,용인한숲시티점,경기 용인시 처인구 남사읍 한숲로 83 5BL 122호,,37.1157126870885,127.150478244526
182591,천안자이타워점,충남 천안시 서북구 2공단1로 17 B120호,070-7755-9844,36.8456795347023,127.120103257127
181619,봉담수기교차로점,경기 화성시 봉담읍 세자로 369-3 1층,,37.1987156004544,126.983650279369
181618,회현SK리더스점,서울 중구 퇴계로 72 1층,02-3789-7880,37.5591253443035,126.980603849217
181596,선릉한티중앙점,서울 강남구 역삼로 420 (대치동),,37.500994284456,127.052884685838
181504,수원탑동점,경기 수원시 권선구 탑동로 5 1층 101호,070-8676-7567,37.2693082322515,126.975066395515
181444,광주상무엘리체점,광주 서구 월드컵4강로197번길 9 1층,062-714-1724,35.1535452321366,126.868347233314
180020,인천검단제일프라자점,인천 서구 이음5로 34 106호,032-713-4409,37.593859942825,126.711414310757
180016,화곡역점,서울 강서구 화곡로 154 청산빌딩 1층,070-8880-2622,37.5409897417689,126.838937377558
180011,정선민둥산역점,강원특별자치도 정선군 남면 무릉1로 116 (무릉리),033-804-7979,37.2445745599761,128.774720223338
179585,양산상북보건소점,경남 양산시 상북면 상북중앙로 404 1층,055-785-2568,35.4187953686696,129.06391939644
179231,무안오룡푸르지오점,전남 무안군 일로읍 오룡번영1로 26 상가동 1층 105호(오룡 푸르지오 파르세나),061-281-6111,34.7980340121817,126.476884716969
178444,인천약산초점,인천 남동구 백범로 374 1층,,37.4665843638833,126.709764319746
177283,광주하남지식센터점,광주 광산구 하남산단6번로 57 1층,062-464-2253,35.2025341674026,126.801091720636
177282,세종부강점,세종특별자치시 부강면 부강외천로 76,044-863-1133,36.5263972952603,127.375574402916
177143,서초1동점,서울 서초구 효령로 314 108호,010-4084-1039,37.4853058757741,127.018559459555
177025,인천연수영남점,인천 연수구 먼우금로252번길 27-1 지상1층 일부호(연수동),032-821-8582,37.4189859107215,126.680726531567
176872,인천청라국제도시역점,인천 서구 에코로 65 제1층 제근생동 119호,032-721-7151,37.5523173127979,126.61776532832
176563,중앙대광명병원점,경기 광명시 덕안로104번길 17 제지1층 제B130-1호(일직동),,37.4242146189695,126.887063229173
176197,용인구성점,"경기 용인시 기흥구 용구대로 2398 (마북동, 연원마을벽산아파트)","상가동 212호(마북동, 연원마을 벽산아파트)",37.3003041075341,127.107284192734
175323,여주현암점,경기 여주시 도예로 40 상가동 101호,031-886-7474,37.3072526243726,127.641718414369
174924,광주시청역점,광주 서구 치평로 112 1층 108호,062-447-3371,35.1572894798083,126.847659134451
173739,예천시장점,경북 예천군 예천읍 시장로 143 1층,054-988-9952,36.6581681481106,128.45940494172
173085,담양백동주공점,전남 담양군 담양읍 미리산길 66 (지침리),061-382-4437,35.3142093608538,126.98636178205
172928,안양종합운동장점,경기 안양시 동안구 평촌대로 371 (비산동),,37.4038425629228,126.949047147623
172308,철원동송점,강원특별자치도 철원군 동송읍 금학로 230 (이평리),010-7218-1899,38.2091093203459,127.217763997543
171542,개포구룡초교점,서울 강남구 개포로 265 1층 107호,02-577-1321,37.4809077151366,127.05299794567
171472,대전신탄진점,대전 대덕구 대청로 18,,36.4514341474537,127.430576646106
171182,홍성내포중앙점,충남 홍성군 홍북읍 청사로 152 107호,041-634-8880,36.6577079498513,126.679292999713
170599,대전천동리더스시티점,대전 동구 안샘로 11,042-272-0277,36.3182518281302,127.445030252328
169973,시흥배곧테크노밸리점,"경기 시흥시 서울대학로 59-69 1층 117,118,119호(배곧동, 배곧테크노밸리)",031-8042-6649,37.3586388805947,126.710380526594
169821,충북제천강저점,충북 제천시 청풍호로10길 31 컴포즈커피,043-646-7008,37.1203818660918,128.197755565865
168974,회기역점,서울 동대문구 이문로 42-1 (휘경동),,37.5912023549654,127.057027923197
168942,마포경찰서점,서울 마포구 마포대로 180 101호 컴포즈커피,010-4257-0308,37.5501896795951,126.955540593824
168646,전남함평점,전남 함평군 함평읍 중앙길 94,061-322-5692,35.0639469516064,126.522000810073
168598,인천송도해양경찰청점,"인천 연수구 해돋이로 118 (송도동, 마린프라자)",032-833-0327,37.3923405751451,126.649570717311
168385,오송2산단점,충북 청주시 흥덕구 오송읍 오송생명7로 148,043-238-3690,36.6205370085793,127.316328820366
168283,사천사남점,경남 사천시 사남면 조동길 34 101호(더원타워),055-957-3553,35.0620329056323,128.06910404196
168079,증산벚꽃길점,"서울 은평구 증산로 445 (신사동, 한독패션)",070-8211-2180,37.595917452096,126.914637521335
168078,문래에이스하이테크점,"서울 영등포구 경인로 775 (문래동3가, 에이스하이테크시티)",070-4153-7070,37.5147464245043,126.897536835727
167824,대전경성큰마을점,"대전 서구 대덕대로162번길 23 1층 일부호(갈마동, 삼영빌딩)",,36.3469644288546,127.37699083131
166588,성신여대점,서울 성북구 동소문로24길 9,02-929-4160,37.5932717142856,127.018641155934
166396,전주인후점,전북특별자치도 전주시 덕진구 건산로 244,0708-211-0927,35.8344570801783,127.163976943576
164383,가평조종점,경기 가평군 조종면 현창로38번길 5-1,,37.8187739248154,127.348604447267
164294,마산성호푸르지오점,경남 창원시 마산합포구 천하장사로 62 (성호동),,35.2102127291272,128.569819786384
163583,청주강서점,충북 청주시 흥덕구 강서로 118,043-237-2103,36.6247490277064,127.429728786547
163565,서귀포섭지코지점,제주특별자치도 서귀포시 성산읍 섭지코지로26번길 6 (고성리),064-755-6600,33.4385856761468,126.919404758385
163386,충남부여중앙점,충남 부여군 부여읍 석탑로 51 (구아리),010-7408-7649,36.2807918788097,126.912514373916
163282,인천박촌역점,인천 계양구 장제로 1003,032-272-1005,37.5550986194035,126.745235159219
162008,전주에코3블럭점,전북특별자치도 전주시 덕진구 세병로 92 113호,063-278-3999,35.8725337370176,127.134202965541
161856,고흥녹동점,전남 고흥군 도양읍 비봉로 167 (봉암리),,34.5264361124237,127.135342479737
161833,고흥녹동점,전남 고흥군 도양읍 비봉로 167 102호,,34.5264361124237,127.135342479737
161385,인천더샵아르테점,인천 미추홀구 구월로8번길 18-62 근생1동 b1층 104호,070–7585-7235,37.4564350601056,126.691801714347
161192,천안단대호수점,충남 천안시 동남구 천호지길 27 101호,041-554-8898,36.8358381608365,127.173049914659
160857,김해안동공단사거리점,경남 김해시 김해대로2635번길 7 (안동),055-326-0316,35.2297808302531,128.914916986455
160238,보라매롯데낙천대점,"서울 동작구 여의대방로10길 38 (신대방동, 보라매롯데낙천대아파트)",,37.4954099627716,126.912566500917
160202,진천금호어울림점,충북 진천군 이월면 송림1길 19 상가동 104호,043-533-9298,36.9296865606415,127.426706918408
160071,진천금호어울림점,충북 진천군 이월면 송림1길 19 상가동 104호,043-533-9298,36.9296865606415,127.426706918408
159798,청주오송점,충북 청주시 흥덕구 오송읍 오송생명3로 65-15 (연제리),,36.6316972405474,127.328046334463
159770,대구황금네거리점,대구 수성구 청수로24길 14 (두산동),,35.8393560571641,128.621160390598
159754,천호역힐스테이트점,"서울 강동구 천호대로 1024 힐스테이트천호역에비뉴 119호,124호",,37.5373738689796,127.12572887033
159753,일산식사점,경기 고양시 일산동구 위시티2로11번길 11 위시티휴먼빌 제1층 제근생 3동 135호,031-964-2024,37.6774656803409,126.811834587907
159752,일산식사점,경기 고양시 일산동구 위시티2로11번길 11 위시티휴먼빌 제1층 제근생 3동 135호,031-964-2024,37.6774656803409,126.811834587907
159462,수원구매탄시장점,경기 수원시 영통구 중부대로246번길 41 (매탄동),,37.2731420173851,127.042015049674
159128,경산하양우미린점,경북 경산시 하양읍 서사도리4로 5 1층 102호,070-7717-7544,35.9189930114949,128.808258573911
159123,홍대와우산점,서울 마포구 와우산로 151 (서교동),070-7807-9790,37.5546772014888,126.929775413122
159122,홍대와우산점,서울 마포구 와우산로 151 (서교동),070-7807-9790,37.5546772014888,126.929775413122
158577,양산웅상대로점,경남 양산시 웅상대로 1270 (삼호동),,35.4113943824538,129.165668842527
158551,곤지암터미널점,경기 광주시 곤지암읍 곤지암로 49 (곤지암리),,37.3495814113835,127.341315391582
158473,순천조례점,"전남 순천시 장선배기길 19 (조례동, 순천중앙신협 금당지점)",,34.9533602301359,127.524458516106
158358,수유시장점,서울 강북구 도봉로 251 1층 일부 2칸 (수유동),02-987-1679,37.6309075777383,127.024000336994
158019,밀양내이신촌점,경남 밀양시 창밀로 3566-2 (내이동),055-802-8803,35.5040996511526,128.737695293235
157995,서울강서초점,서울 양천구 오목로 34 (신월동),02-6959-1559,37.5216975548336,126.841493112207
157675,광명새마을시장점,경기 광명시 광명로 834 광명 루미에르 스위첸 상가 1층 123호,02-2060-7257,37.4736405254307,126.852050630025
157480,파주맥금동버스종점점,경기 파주시 금물다리길 282,031-946-5551,37.7720995595732,126.733628881799
157453,속초여고점,강원특별자치도 속초시 배움터길 4 (교동),033-635-2000,38.1989494319143,128.571353017737
156624,대구이곡점,대구 달서구 이곡공원로 17 (이곡동),070-5057-0003,35.8555282635906,128.509492040092
156300,대전낭월점,대전 동구 산내로 1333,042-283-0380,36.2823409536943,127.466757111486
156252,제주외도점,제주특별자치도 제주시 일주서로 7298 1층,070-8691-2362,33.4922890803883,126.426658760837
155854,상대원중앙점,경기 성남시 중원구 금상로 18 메디원빌딩 102호,031-745-8550,37.437516227866,127.159732238578
155516,경기광주초월도서관입구점,"경기 광주시 초월읍 경충대로 1254 (대쌍령리, 대쌍빌딩)",,37.386847073902,127.288081807556
155498,종로YMCA점,서울 종로구 종로 69 1층 109호,02-723-0857,37.5705768749389,126.98531414524
155294,창원지귀시장점,경남 창원시 의창구 창이대로 199,055-606-7747,35.2449313049058,128.659175193545
155037,당진시립중앙도서관점,충남 당진시 당진중앙2로 130 (읍내동),041-355-3646,36.8945020833885,126.631651182716
154063,광명현대테라타워점,경기 광명시 오리로651번길 8 (하안동),,37.4591804392495,126.875719275951
154062,광명현대테라타워점,경기 광명시 오리로651번길 8 (하안동),,37.4591804392495,126.875719275951
154000,삼척항점,강원특별자치도 삼척시 이사부길 25 (정하동),033-575-4345,37.4389748304375,129.192355543397
153421,영주풍기점,경북 영주시 풍기읍 기주로 44 (동부리),054-633-6200,36.8685611194333,128.530848678107
153342,진해경화시장점,경남 창원시 진해구 충장로 357 109호,055-713-7931,35.1539137625104,128.691103309056
153108,창원신화테크노밸리점,경남 창원시 의창구 평산로 23 (팔용동),,35.2469138517723,128.613688180032
153064,광주수완대방대주점,광주 광산구 풍영로200번길 21 (장덕동),062-951-2100,35.1894278096351,126.815575759707
153062,세종산울점,"세종특별자치시 산울2로 10 B동 B-107호(산울동, 산울마을6단지근린생활시설)",044-998-8096,36.5296440869953,127.262334403956
152514,강남포이점,서울 강남구 개포로 223 101호 102호,070-8883-8000,37.4789414464188,127.047255591553
152188,김포시청본관점,경기 김포시 사우중로 1 김포시청본관 지하1층,070-8834-9004,37.616063971697,126.714307496432
152185,강릉입암점,강원특별자치도 강릉시 월대산로 64,,37.7598270638186,128.917441718696
152011,광주학동역점,광주 동구 남문로 694-26 (학동),062-412-4146,35.1327902701098,126.929621483324
151918,인천학익삼거리점,인천 미추홀구 소성로 200,,37.4403173081938,126.670257733301
151430,진천혁신도시점,충북 진천군 덕산읍 대하로 133,070-8874-2575,36.9029256295042,127.534172520122
150764,순창터미널점,전북특별자치도 순창군 순창읍 장류로 355,063-652-6548,35.3767703839361,127.141197788853
150744,응암시장교차로점,"서울 은평구 응암로 247 (응암동, 외환은행)",,37.5942237088269,126.917854566217
150486,광교더샵레이크시티점,경기 수원시 영통구 광교호수공원로 20,031-548-2587,37.2710166171311,127.060226893407
150432,세종종촌점,세종특별자치시 도움1로 106,,36.5026732042404,127.248183733479
150239,양평역이노플렉스점,"서울 영등포구 양산로 57-5 (양평동3가, 양평동 이노플렉스)",02-2679-7774,37.5255728854512,126.889361756493
150209,안산선부광장점,경기 안산시 단원구 선부광장1로 56,031-405-5007,37.3365953473085,126.810722261529
149768,익산덕기점,전북특별자치도 익산시 무왕로 1730 (덕기동),063-831-1104,35.9798388987786,127.040558892547
149602,광주금호종원점,광주 서구 화개1로79번길 7 1층(금호동) 112호,062-412-3371,35.1309614018341,126.854142278808
148827,고양삼송테크노벨리점,경기 고양시 덕양구 통일로 140 A동 154호,02-355-6680,37.6491288977193,126.902165907646
148822,천안쌍용대우타워점,충남 천안시 서북구 봉명로 24 101호,041-415-2214,36.8074334047524,127.131058594698
148789,성남의료원점,경기 성남시 수정구 수정로 170 (신흥동),031-751-7779,37.4427899144851,127.138864382355
148370,양재시민의숲에브리데이점,서울 서초구 동산로2길 16 (양재동),,37.4691376894151,127.041631742501
148210,인천수봉공원점,인천 미추홀구 수봉로 150-1 (주안동),032-724-9524,37.4575664852043,126.666267385236
147726,남해중앙점,경남 남해군 남해읍 화전로78번길 5 (북변리),055-864-3517,34.8382987942794,127.894786584476
147692,의정부고산점,경기 의정부시 세석로 24 109,070-7635-6145,37.7296549826,127.109490069237
147642,구미산동점,경북 구미시 산동읍 신당2로1길 12 1동 1층 106호,054-715-3507,36.157238049214,128.432270458275
146977,강북번동점,서울 강북구 오현로34길 12,,37.6286035478846,127.040039504413
146742,제주외도부영점,제주특별자치도 제주시 우정로11길 3 (외도일동),,33.4879428991705,126.431397354504
146154,고령성산점,경북 고령군 대가야읍 우륵로 4 (헌문리),,35.7301964319736,128.268900727913
146020,역삼개나리점,서울 강남구 언주로 405 (역삼동),,37.4991851221367,127.043950332457
145393,평촌디지털엠파이어점,경기 안양시 동안구 흥안대로427번길 16 1층 118호,,37.3930060253125,126.973767118076
145347,의정부행복로점,경기 의정부시 행복로 30 (의정부동),,37.7412442026394,127.049825516468
145279,부산신항에비뉴점,경남 창원시 진해구 신항4로 47-14 1층 110호,055-715-3353,35.0877150418516,128.816604040962
145097,대전둔산초점,대전 서구 둔산남로 42 (둔산동),042-472-1401,36.3488523041728,127.382181655566
144811,화성드림파크점,경기 화성시 우정읍 기아자동차로 237 (매향리),031-358-9596,37.0499432322862,126.766645801643
144623,광주풍암2지구점,광주 서구 송풍로17번길 5 062-716-2236,,35.1187146875227,126.866689530691
144297,인천우림라이온스밸리점,인천 부평구 부평대로 283 우림라이온스밸리 B동 113호,070-8277-4660,37.5176355485615,126.720109563237
144127,진주더퀸즈웰가점,경남 진주시 새평거로 25 상가 1동 111호,055-920-2229,35.1665554324475,128.049618863316
143215,수원남수동한옥마을점,경기 수원시 팔달구 창룡대로 66-1 (남수동),031-305-8200,37.2844224448959,127.022302453957
142479,광주첨단비즈타워점,광주 북구 첨단연신로 45 1층 A-108호,062-716-0602,35.2014768439792,126.863473849477
142242,인천송도이편한세상점,인천 연수구 랜드마크로 113 이편한세상송도 후문상가 113호,070-7661-1113,37.4134476020739,126.617701743514
142190,대구현풍중리점,대구 달성군 현풍읍 테크노상업로 26 (중리),,35.6914111531274,128.453738546575
141536,보라매중앙점,서울 동작구 여의대방로24길 24 (신대방동),,37.4978777209204,126.921537368112
141270,오창1산업단지점,충북 청주시 청원구 오창읍 과학산업3로 202-7 104호,070-7585-0280,36.707092406198,127.429344764057
141247,화성팔탄점,경기 화성시 팔탄면 푸른들판로 701 (구장리),,37.1701453523972,126.892386650646
141203,건대양꼬치거리점,서울 광진구 동일로18길 62,02-6052-4856,37.5390006049679,127.066058125275
141202,제주화북뉴월드마트점,제주특별자치도 제주시 일주동로 233 (화북일동),,33.5197112375369,126.570276881705
141134,미사스마트밸리점,경기 하남시 미사강변서로 16 RB158호,,37.5517688347028,127.184692024093
140954,굽은다리역사점,"서울 강동구 양재대로 1574 550-103호(명일동, 굽은다리역)",,37.5459227458636,127.143349163756
140662,대구달성고점,대구 서구 달구벌대로 1727 (내당동),070-7576-1273,35.8569688075924,128.554136897873
140500,여수문수광장점,전남 여수시 여문2로 73 코아상가동 1-11호,061-810-0711,34.7546616306334,127.692986453159
139704,동작남성점,서울 동작구 솔밭로 103 (사당동),,37.485631919255,126.968189799764
139703,용두동아제약점,"서울 동대문구 무학로23길 8 (용두동, 보금빌딩)",02-921-3901,37.5726182309002,127.030053518138
139116,인천검단법조타운점,인천 서구 이음3로 145 105호,,37.5888350856487,126.708063727904
139065,원주원주고점,강원특별자치도 원주시 치악로 1754-2 (개운동),,37.3392679410221,127.956356706988
138971,북수원자이렉스자이점,경기 수원시 장안구 장안로 271 1동 101호,031-271-8311,37.3069606337226,126.989365340196
138785,광주임동제니스점,광주 북구 유동길 46 202동 1-113호(임동),070-4419-0777,35.1574450892805,126.903069573793
137520,인천학산사거리점,인천 미추홀구 매소홀로 355,032-299-8076,37.4414509031689,126.661976343924
137500,인천오류왕길점,인천 서구 단봉로139번길 3-5 (오류동),070-7856-9994,37.5972422439983,126.637079489928
137193,광주전대풍경채점,광주 북구 당뫼로 62 (중흥동),062-513-1070,35.1716589505363,126.9154332263
137095,포항이인지구점,경북 포항시 북구 흥해읍 이인로 100 (이인리),,36.0716381353022,129.333132867247
137079,김천부곡점,경북 김천시 부곡길 201 1층 105호,,36.1258353503458,128.099305466449
136915,수원산드래미점,"경기 수원시 영통구 인계로 264 (매탄동, 매탄삼성내과의원)",070-7755-8755,37.2637048679625,127.046365448585
136315,대전노은역광장점,"대전 유성구 노은로 178 (지족동, 금강프라자)",042-824-0315,36.3755909307344,127.318507795507
136222,당진기지시점,충남 당진시 송악읍 반촌로 102 태영빌딩 102호,041-970-5846,36.9041243087325,126.69474905132
135651,세종도담점,세종특별자치시 보듬3로 6 상가2동 1층 106호,044-867-9080,36.5128535715887,127.258941139226
135645,대전둔곡점,대전 유성구 과학지원4길 13 (둔곡동),070-4349-6243,36.4532775136323,127.360508607055
135274,동의병원점,부산 부산진구 양정로 63 D동 2층,,35.1707921058527,129.07738273622
135103,광주컨벤션센터점,광주 서구 마륵로 104 (치평동),062-716-7898,35.1457977564643,126.842846589029
134816,인천국세청점,인천 남동구 미래로 6 마커스 오피스텔 상가 1층,070-5100-5554,37.4506396602081,126.705073094753
134815,창원신사로점,경남 창원시 성산구 신사로35번길 2 지하1층 지하2호,055-264-3286,35.2256239230497,128.689606688355
134066,강서등촌중앙점,서울 강서구 공항대로45길 44 105호,02-2658-2686,37.5568092839784,126.855808218309
133796,창원남산서상점,경남 창원시 의창구 남산로 99 (서상동),055-292-5048,35.2549027425487,128.619261389268
133235,상명대동숭캠퍼스소극장점,"서울 종로구 동숭길 133 (동숭동, 상명대학교예술디자인센터)",070-8816-0008,37.5833730477478,127.002736308322
132770,대구범어W점,"대구 수성구 달구벌대로 2436 (범어동, 수성 범어W)",053-746-2435,35.8583856427031,128.628303515435
132721,광주동구청점,"광주 동구 제봉로82번길 3 (서석동, 굴마을 생선구이)",062-413-5103,35.1461055507998,126.922238221614
132713,서울역부양빌딩점,"서울 용산구 한강대로 397 (동자동, 부양빌딩)",,37.5538229518647,126.972351103924
131815,대전관저마치광장점,대전 서구 구봉로 137,042-710-0071,36.2966883549791,127.338178896526
131689,수원팔달경찰서점,경기 수원시 팔달구 세지로 395 (우만동),031-257-4521,37.2851712281451,127.028507359804
130771,광주큰별초등학교점,"광주 광산구 수등로123번길 21 (신가동, 수완지구 호반베르디움 1차 아파트)",062-716-4206,35.185682616826,126.822283377357
130194,완주봉동둔산점,전북특별자치도 완주군 봉동읍 둔산3로 18 (둔산리),070-7766-7715,35.9569672118494,127.124514218723
129920,단국대천안캠퍼스단우홀점,충남 천안시 동남구 단대로 119 단우홀내,,36.8359545571713,127.165213861608
129915,명동길점,서울 중구 명동7길 18 (명동1가),02-771-7772,37.5645440563014,126.984445373415
129909,단국대죽전캠퍼스웅비홀점,"경기 용인시 기흥구 마북로247번길 109 (마북동, 단국대학교기숙사)",,37.316837154573,127.126737175655
129818,인천구월아시아드점,인천 남동구 선수촌공원로17번길 1 구월테크노벨리 110호,032-227-8270,37.4402282669533,126.709647489089
129740,동탄숲속마을점,경기 화성시 동탄지성로 145 (능동),,37.2096498193786,127.059339484543
129733,미사하남고점,"경기 하남시 미사강변남로 33 (망월동, 황금프라자)",070-8648-3075,37.559915924867,127.185547174118
129720,분당서현로데오점,"경기 성남시 분당구 분당로53번길 3 (서현동, 농업협동조합중앙회)",031-697-5482,37.3835117930041,127.120908201445
129455,둔촌동역사1호점,서울 강동구 양재대로 1355 둔촌동역사 554-104호,02-477-2335,37.5273952498819,127.135616051172
129410,진영여래점,경남 김해시 진영읍 여래로20번길 6,055-724-2588,35.3046304538608,128.734087988125
129209,남한산성입구역역사점,경기 성남시 수정구 산성대로 445 남한산성입구역 지하 822-203호,,37.4516079115709,127.159457957998
129131,포항용흥점점,경북 포항시 북구 대안길 58 150동 107호,054-248-5453,36.0420894617735,129.351963228665
128287,서귀포여고점,"제주특별자치도 서귀포시 태평로 95 (호근동, 서귀포의 아침)",,33.2449915294949,126.533813243698
128071,대구달서sk뷰점,대구 달서구 용산로 27 (본리동),053-525-3777,35.8398132809279,128.530382661191
126784,거제고현터미널점,경남 거제시 서문로 73 102호,055-736-2236,34.8901333295027,128.623564207805
126780,진해용원어시장점,경남 창원시 진해구 용원동로221번길 4-1 (용원동),055-715-5420,35.0928537306468,128.818992470246
126779,인천구월여중점,"인천 남동구 예술로174번길 46 1층 104호(구월동, 인스테이션)",070-7808-3247,37.4494521658077,126.703755164663
126645,경주보문점,경북 경주시 보문로 549 110호,054-745-3010,35.8352907598581,129.284770536342
126525,대구파동점,"대구 수성구 파동로 190 101동 103호(파동, 수성더팰리스푸르지오더샵)",053-201-0215,35.8201458586533,128.612718114884
126480,도곡매봉점,"서울 강남구 남부순환로 2738 (도곡동, 상일빌딩)",,37.4859642684239,127.045418808011
126215,천호2동점,"서울 강동구 올림픽로 686 (천호동, 오송빌딩)",,37.5424731087197,127.125103659167
126145,대치학원가중앙점,서울 강남구 도곡로78길 6 101-102호,02-6954-0991,37.4977286959695,127.058938374071
126138,장한평역사점,서울 동대문구 천호대로 지하 405 역사 지하2층,,37.5615026802954,127.064421108758
126131,인천마전중학교점,"인천 서구 완정로92번길 1 (마전동, 검단힐스테이트아파트 상가)",070-4647-0726,37.5991030117889,126.665105348057
126084,대구강창역점,대구 달서구 호산로27길 2 (파호동),,35.8522105755886,128.47756864226
125901,울산왕생이길점,울산 남구 왕생로 61 (달동),052-256-3476,35.5389558996041,129.330938870509
125652,광주소촌힐스점,광주 광산구 어등대로647번북길 8 501 근린생활시설동 1,070-4241-8228,35.1464576633201,126.792746430486
124694,안산KTD점,경기 안산시 단원구 산단로 14,,37.2970250445545,126.785272416507
124693,오산원동롯데캐슬점,"경기 오산시 원당로 35 (원동, 오산롯데캐슬스카이파크)",010-7734-9149,37.1410895478176,127.093383286482
124462,진해남원로타리점,경남 창원시 진해구 중원로 20-1,055-719-3388,35.1458687764896,128.659443982988
124423,안양1번가점,경기 안양시 만안구 만안로223번길 7 (안양동),,37.4004012163302,126.922387674771
123862,대전갈마점,대전 서구 갈마중로 4 (갈마동),042-522-2265,36.3474449138725,127.369583528841
123718,안성공도점,경기 안성시 공도읍 서동대로 4079 주은풍림아파트 제상가동 130호,,36.9982966066329,127.158830626552
123006,수원화서블루밍점,경기 수원시 팔달구 화양로35번길 12 101호,031-255-3194,37.2810255847184,126.996209871791
122789,마산육호대로점,경남 창원시 마산회원구 회원동5길 1 101,055-242-8909,35.2169148118928,128.573870292497
122783,고양관산고골점,경기 고양시 덕양구 고골길 5 2,031-966-0723,37.7149484507767,126.869960959214
122373,인천부평역이편한시티점,인천 부평구 경원대로1344번길 34 1층 113호,032-233-0321,37.4902833072023,126.719138689116
121949,여수쌍봉사거리점,전남 여수시 시청로 43 1층 에이호,061-686-4914,34.7655969176144,127.66244397159
120967,강서대점,서울 강서구 까치산로 127 (화곡동),02-2602-9502,37.5491828232009,126.850757020586
120744,파주문발점,경기 파주시 지목로 68 (문발동),031-937-8588,37.725817375984,126.698524600208
120357,충주교통대점,충북 충주시 대소원면 대학로 27 (검단리),070-8657-0615,36.9653513903437,127.871016780388
120352,압구정스퀘어점,서울 강남구 압구정로34길 11,02-512-9888,37.52737633824,127.030974118804
120336,울산언양읍성점,울산 울주군 언양읍 북문6길 5 (동부리),052-254-8331,35.5701488278791,129.126317094137
120134,대전충남대병원점,대전 중구 계룡로920번길 32 (대사동),042-242-8884,36.3189231515371,127.41508708195
119972,동대입구역점,서울 중구 동호로24길 27 (장충동2가),,37.5604071352264,127.005300486058
119964,우장산숲아이파크점,"서울 강서구 강서로 200 1층 좌측호(화곡동, 섬유유통노련회관)",070-7804-3737,37.5441764044887,126.83861515585
118892,장유한양에스쇼핑점,경남 김해시 장유로 270 1층 113호,055-820-7711,35.2008418189063,128.812115772135
118824,문발IC점,경기 파주시 교하로 849,031-945-8899,37.7232996460607,126.7011537411
118739,옥정프라자점,경기 양주시 옥정서로 217 105호,031-858-7233,37.8325297337084,127.088425171711
118730,압구정스마일점,서울 강남구 압구정로 334 지상1층 104호,02-514-3888,37.5281701219536,127.038060817396
117628,대전선사유적지점,대전 서구 청사서로 36 (월평동),042-488-1982,36.3610285406005,127.376926843936
117597,송파풍납점,서울 송파구 토성로 65,02-482-1230,37.5289079557842,127.117345632021
117594,서울외대점,서울 동대문구 휘경로 12 (이문동),,37.5958536681251,127.061275615407
117494,삼척임원항점,"강원특별자치도 삼척시 원덕읍 임원중앙로 39-1 (임원리, 여정식당)",,37.2301423316649,129.344601729053
117461,김해안동푸르지오점,경남 김해시 안동길 31 109동 106호 컴포즈커피 김해안동푸르지오점,055-724-3810,35.2374639904214,128.912952864372
117432,전북대점,전북특별자치도 전주시 덕진구 권삼득로 315,,35.8437183078645,127.127483926749
117393,선유중앙점,서울 영등포구 선유로49길 22 (양평동4가),,37.5366591872137,126.895320109463
116949,대구세천점,대구 달성군 다사읍 세천남로 8 (세천리),053-583-7747,35.8735292212617,128.477172803328
116757,창원중앙오거리점,경남 창원시 성산구 원이대로580번길 24-4 (중앙동),055-266-3799,35.2267374412458,128.677091020713
115948,대전월평점,"대전 서구 월평로 64 1층 일부호(월평동, 구성빌딩)",,36.3559766136934,127.364181514229
115940,영광군청점,전남 영광군 영광읍 중앙로 180,061-945-9885,35.274952632352,126.512007323794
115898,탕정유니콘101점,"충남 아산시 탕정면 용머리길 40 유니콘101 2동 114,123B호",041-427-0100,36.7957393641009,127.05314097565
115873,용산원효로점,서울 용산구 원효로41길 23 (원효로3가),070-8670-8822,37.5348159238317,126.958768050985
115522,과천상상자이점,"경기 과천시 과천대로7길 65 (갈현동, 과천상상자이타워)",070-4647-4575,37.4166271377393,126.976105372839
115151,제주저지점,제주특별자치도 제주시 한경면 녹차분재로 525 (저지리),,33.3186375563519,126.268658140718
115085,인천송도스마트스퀘어점,인천 연수구 송도미래로11번길 27 B동 124호,032-813-0124,37.3710919643452,126.649404275884
114985,창원의창구청점,"경남 창원시 의창구 도계로4번길 27 (도계동, 동영빌라)",055-603-3312,35.2574079499618,128.634935466517
114879,수원조원점,경기 수원시 장안구 조원로 69 (조원동),031-255-1544,37.2995523387443,127.017299097216
114167,용인김량장동점,경기 용인시 처인구 금령로85번길 1 (김량장동),031-328-8289,37.2354928123955,127.205704503077
114163,원주남원주초점,강원특별자치도 원주시 늘품로 33,033-765-2255,37.3227197748756,127.950113713292
113958,양재이마트점,"서울 서초구 매헌로 16 이브랜드 리빙관 ,지하1층 102호",02-2155-0118,37.462467348157,127.036947909974
113686,인천검단예미지트리플에듀점,인천 서구 서로4로 89 검단신도시예미지트리플에듀 상가 110호,032-564-8298,37.60208808539,126.712578608875
113288,부천대점,경기 부천시 원미구 부일로445번길 45 (심곡동),032-655-1244,37.4882917325857,126.779432688448
112585,상주경북대점,"경북 상주시 경상대로 2560-13 (가장동, 동이빌딩)",054-536-0606,36.3777588155501,128.148638879354
112431,하계타운점,서울 노원구 한글비석로1길 67,070-4151-3500,37.6407029043849,127.070253816464
112331,인천대청도점,인천 옹진군 대청면 대청남로 4 (대청리),,37.8245583275468,124.715996932023
111947,강진중앙점,전남 강진군 강진읍 중앙로 120 (남성리),,34.6399703547176,126.769859944609
111189,인천정서진점,인천 서구 정서진5로 37 상가 104호,032-563-0076,37.5622339865603,126.61868283696
111088,부천송내우성점,경기 부천시 소사구 중동로49번길 44 1층 6호,070-4099-1282,37.4853374420612,126.761673303489
111029,부천팰리스카운티점,경기 부천시 원미구 중동로 100 아이파크상가 108호,070-4252-2024,37.4886508109389,126.765823158016
110567,통영미수점점,경남 통영시 미수해안로 42 101호,055-725-8007,34.8297289241175,128.406662460844
110523,광주쌍촌명지점,광주 서구 상무대로868번길 30-1 (쌍촌동),062-381-2233,35.1474327437107,126.857660470409
109707,수유역점,서울 강북구 오패산로 417 1층 일부(번동),02-998-4160,37.6376286318446,127.025838717687
109218,청주산남점,충북 청주시 서원구 산남로 68 센타프라자 109호,043-288-6186,36.611357712156,127.466519700006
109212,수원능실마을점,경기 수원시 권선구 호매실로165번길 71 110동 109호,031-297-8735,37.2586597865924,126.952139716806
109186,인천부평하이마트점,인천 부평구 길주로 512 1층 컴포즈커피,070-4419-2419,37.5072861545293,126.718953756309
107716,중계중앙점,서울 노원구 덕릉로73길 18 태인빌딩1층 104호,02-935-2407,37.6521796648241,127.072435497752
107715,이기대입구점,부산 남구 이기대공원로 4 101호,051-791-0503,35.124147253176,129.113035291378
107714,인천구월한화포레나점,인천 남동구 석산로 202 (구월동),032-466-0507,37.460605606028,126.714339369263
107404,대전건양대병원점,대전 서구 관저동로 170 124호,042-543-6093,36.3073011518925,127.341157141043
107348,수원송죽점,경기 수원시 장안구 경수대로973번길 18 (송죽동),,37.3037101932034,127.004100663106
106185,청주지웰시티점,충북 청주시 흥덕구 대농로 49 043-900-6020,,36.6418622499465,127.429570884518
106095,일원맛의거리점,서울 강남구 양재대로35길 6 (일원동),02-459-9618,37.4900779940726,127.083686888247
105560,대구강촌우방점,대구 동구 화랑로80길 8 1층 102호,053-249-7366,35.8757757374524,128.666113165942
105529,대전용문역점,대전 서구 계룡로 632 102호,070-8657-3935,36.3388074387833,127.392085117884
105528,상동라일락점,경기 부천시 도약로 37-1 (상동),032-323-0918,37.5125268738012,126.753726529925
104683,대구국우점,대구 북구 학남로 97 (국우동),053-311-3355,35.9440499679609,128.569716264627
104411,광주상무우정청점,광주 서구 계수로 51 (쌍촌동),062-716-7708,35.160535404751,126.856326041481
104019,대전미건테크노월드점,"대전 유성구 테크노2로 199 (용산동, 미건테크노월드)",042-933-9843,36.423256383147,127.407364520451
103984,삼양솔매점,"서울 강북구 솔매로28길 1 171, 172호",,37.6247466434881,127.020078245862
103973,중계브라운스톤점,"서울 노원구 동일로203가길 29 171, 172호",02-977-3412,37.6398759609875,127.06428375943
103589,용인물푸레마을점,"경기 용인시 기흥구 구성3로28번길 20 가나프라자 2차 제1층 102호,103호",070-4252-5252,37.2952542586413,127.152161564371
103582,여수죽림부영점,전남 여수시 소라면 죽림로 10 상가동 105호(죽림부영1차),061-810-3686,34.7627891163676,127.640465277434
103267,양주고암점,경기 양주시 고암길 306-77 102호,,37.8367598478579,127.068634435741
103266,양주고암점,경기 양주시 고암길 306-77 102호,,37.8367598478579,127.068634435741
103168,고양관산점,경기 고양시 덕양구 통일로 768 1,070-8657-3832,37.6869307975602,126.87697710335
103099,고척중앙점,서울 구로구 고척로27길 111 (개봉동),02-2038-8600,37.506660077449,126.845087661076
102962,인천완정사거리점,인천 서구 원당대로 673 태한빌딩103호,070-4335-2336,37.5939710288512,126.675998202331
102843,철산우성점,경기 광명시 시청로 139 케이비에스우성아파트 제14동 제111호,,37.4878996126735,126.868345823925
102682,창원역점,경남 창원시 의창구 의창대로62번길 5,055-719-0486,35.2566054645323,128.607974637621
102209,대전송촌공원점,대전 대덕구 동춘당로94번길 11-7 광혜빌딩 1층,,36.3657087811662,127.439858454071
102206,광주일곡중학교점,"광주 북구 일곡마을로 225-1 상가동 1층 111, 112호",062-571-2588,35.2105263795868,126.89845877572
101967,김해생림나전점,경남 김해시 생림면 인제로 722 (나전리),070-4647-1243,35.2886368577086,128.884707941156
101963,광주광주여대점,광주 광산구 용아로 235 상가동 1층 101호(산정동),062-955-5004,35.1643626630932,126.80089613652
101898,파주문산당동점,경기 파주시 문산읍 방촌로 1719-62 와우노블시티 1층,,37.8672498941962,126.783723049908
101755,건대스타시티몰점,서울 광진구 능동로 110 더샵스타시티몰 영존 B213호,,37.540657941434,127.07141185507
101663,시흥은계우미린점,"경기 시흥시 은계중앙로 115 상가동 1층 102호(은행동, 시흥은계우미린더퍼스트)",031-8042-6787,37.4401813232534,126.802837827161
101168,울산시청점,울산 남구 돋질로81번길 9-1,0504-0801-0085,35.5394134808119,129.314136000296
101160,하계을지병원점,서울 노원구 공릉로59나길 48-4 (하계동),02-2088-6457,37.6353679235145,127.070067635473
101157,인천삼산초등학교점,인천 부평구 후정동로 28 상가 5호,070-8240-3177,37.5198105289682,126.738167138461
100701,안산반월역점,경기 안산시 상록구 건건로 119-5 작악빌딩 1층 일부(건건동),,37.3114303636749,126.90438393345
100367,평촌역점,경기 안양시 동안구 관평로182번길 53 1층107호,,37.3942464007229,126.9630754384
100360,시흥정왕본동점,경기 시흥시 정왕천로428번길 2 1층 일부호,031-498-1021,37.3452827400037,126.75324125566
100187,신용산래미안점,서울 용산구 한강대로 95 109,070-7537-2984,37.5288173852679,126.966653789116
100143,화서역브리시엘점,경기 수원시 장안구 수성로157번길 60 144호,070-7624-2979,37.2888187368683,126.989734067259
100130,의정부회룡점,경기 의정부시 평화로 365 (호원동),031-877-6580,37.724472231064,127.047984765904
100122,가양초점,"서울 강서구 양천로59길 46 대일빌딩, 101호",02-2668-0507,37.561041563254,126.860025023147
100108,인천효성제일풍경채점,인천 계양구 효서로112번길 2 (효성동),070-8844-1269,37.5276674776401,126.708021595971
99117,둔내웰리힐리점,강원특별자치도 횡성군 둔내면 고원로 251 C동,,37.5063524149173,128.227027887467
99081,서대구화성파크점,대구 서구 서대구로29길 30 7208동 1층 7호,053-525-1734,35.8705528186479,128.547213397208
98974,울산터미널점,울산 남구 달삼로72번길 13 (달동),052-266-5592,35.5352685280088,129.337507160767
98973,시흥거모점,경기 시흥시 도일로135번길 4,031-493-0234,37.3425894628065,126.784602071809
98690,파주금촌점,경기 파주시 문화로 97 제1호(파주시 문화로 97),031-935-6306,37.7628026024477,126.77469732439
98504,광주선교지구점,"광주 동구 선교로 38-30 111동 105호(선교동, 선교1차우방아이유쉘아파트)",062-225-5565,35.0895772119742,126.951487454313
98494,원주시청로점,"강원특별자치도 원주시 시청로 76 (무실동, 에이스주차타워2)",,37.3368564271354,127.92662594425
98487,마산완월서광점,경남 창원시 마산합포구 고운로 168 서광아파트상가 101호,055-222-5048,35.196863093289,128.562563327281
98348,대전관저원앙점,대전 서구 관저북로 71 원앙쇼핑 105호,0502-1921-2358,36.3082939290966,127.33656664145
98312,강원양구점,강원특별자치도 양구군 양구읍 중앙길 14,033-938-9876,38.106871009821,127.989178345338
97928,상왕십리역점,서울 성동구 왕십리로 410 센트라스 상가 L동 104호,070-7755-0221,37.5666029325047,127.024082467223
97642,위례우성어반점,"서울 송파구 위례송파로 77 107호,108호",02-405-6157,37.4854429227354,127.142453020964
97172,인천송도해온프라자점,인천 연수구 컨벤시아대로130번길 18 해온프라자 102호,070-8657-3123,37.3932134160267,126.64459769022
96975,광주양동시장점,광주 서구 천변좌로254번길 2 (양동),062-363-8468,35.1533731091525,126.903412318548
96852,청주봉명점,충북 청주시 흥덕구 덕암로 28 (봉명동),070-4334-4777,36.652864201538,127.457197807172
96812,인천용현자이타워점,인천 미추홀구 독배로 383 112호,070-4833-2674,37.45432152172,126.648254730698
95806,울진후포점,경북 울진군 후포면 울진대게로 16-3 (삼율리),054-788-7778,36.6775784718333,129.442845070669
94748,시흥금천점,서울 금천구 시흥대로39길 11 102호,02-805-2371,37.4469345335116,126.902549152002
94518,은평서북병원점,서울 은평구 갈현로11길 12 (구산동),02-2138-0999,37.6054628361433,126.909231882603
94491,순화점,서울 중구 칠패로 27 B동 109호(1층),,37.5602669008102,126.972035325682
94333,아산풍기점,충남 아산시 어의정로 184 아산풍기이지더원1차아파트 제상가4동 제지1층 제비107호,041-424-2519,36.774515836746,127.016633095726
94112,대전은하수네거리점,대전 서구 둔산로51번길 16 (둔산동),042-710-4377,36.351887764717,127.38016545488
93917,성남신흥역점,경기 성남시 수정구 산성대로 267 1층 123호,031-602-4023,37.4413240031714,127.146446763662
93627,경주용황점,경북 경주시 용황로10길 43 상가 115호,070-7636-8989,35.8868587905534,129.227907175334
93588,서울경희대점,서울 동대문구 경희대로 9-1 (회기동),02-966-1998,37.5925612891452,127.052230292891
93573,강릉솔올점,강원특별자치도 강릉시 경포로 42,033-823-3024,37.7714172221421,128.878981184298
93318,인천부평그랑힐스점,인천 부평구 청중로 47 (청천동),,37.517834748457,126.702377974927
93182,안양힐스테이트비산점,경기 안양시 동안구 임곡로 70 1층 102-3,031-444-9049,37.4083221019483,126.93238713337
92987,천안쌍용이마트점,충남 천안시 서북구 충무로 205,,36.7966653262054,127.128806252815
92603,당진현대제철점,"충남 당진시 송산면 가곡로 150-24 (동곡리, 현대에비뉴)",,36.972038902873,126.701456578625
92482,동탄에듀몰점,"경기 화성시 동탄기흥로353번길 99-7 1층 107호(오산동, 안강프라이빗에듀)",031-372-9599,37.1877796611807,127.086811907155
92481,강동고덕비즈밸리점,"서울 강동구 고덕비즈밸리로 26 1층 A-127호(고덕동, 강동U1센터)",,37.5652057425559,127.160472742415
91819,충북괴산터미널점,충북 괴산군 괴산읍 읍내로10길 3,043-833-7787,36.808954132049,127.794175266174
91690,함안호암점,경남 함안군 칠원읍 호암길 22 더노블리지 105호,055-586-9333,35.2752565233465,128.521096373866
91591,마곡수명산파크점,서울 강서구 강서로47길 113 성호빌딩 106호,02-2666-8781,37.5532440805507,126.829847684279
91387,광주오치주공점,광주 북구 서하로194번길 3 (오치동),062-716-1303,35.1867929573653,126.901877735389
91167,신사세로수길점,서울 강남구 논현로175길 58 1층 101호(신사동),02-6406-4845,37.5244473244974,127.02418294154
90597,안산문화광장점,경기 안산시 단원구 광덕3로 167-18,031-481-9999,37.3141265579219,126.831689604321
90474,조치원신흥점,세종특별자치시 조치원읍 이화로 26 상가동 10호,070-4006-0695,36.5926513290461,127.287758008128
90421,방화방신점,"서울 강서구 초원로13길 58 (방화동, 센터하임)",02-2666-2371,37.5697739678099,126.813073544339
90404,창동어울림점,"서울 도봉구 해등로16길 26 타임프라자 110호,111호",070-7755-5646,37.6556290632666,127.041487916229
90401,동해묵호점,강원특별자치도 동해시 일출로 109,033-535-7008,37.5528505750388,129.119093538673
90292,인천가재울역트루엘에코시티점,"인천 서구 열우물로240번길 20 (가좌동, 가재울역트루엘에코시티아파트)",032-577-7663,37.4849143252991,126.686648331878
89925,덕소강변중앙점,경기 남양주시 와부읍 덕소로116번길 19-2 1층 102호,070-8250-9851,37.5846696778397,127.210251271189
89859,수원센트럴프라자점,경기 수원시 팔달구 수원천로210번길 19 (인계동),,37.2729833675698,127.019313368547
89823,광주남구체육관점,광주 남구 화산로 115 진아리채 상가동 102호,062-710-6664,35.115646523398,126.908595323641
85662,화성안녕점,"경기 화성시 장조2로 12 1층 110호, 111호",031-238-0113,37.2041463743931,126.999348902143
85326,경기광주초월점,"경기 광주시 초월읍 경충대로1127번길 58 (쌍동리, 광주초월역한라비발디)",031-761-1147,37.3762704728023,127.288103899378
85285,수원센트럴아이파크자이점,경기 수원시 팔달구 인계로 21 (인계동),010-6224-4406,37.2703753379282,127.0212229456
85276,동대문두타몰점,"서울 중구 장충단로 275 (을지로6가, 두산타워빌딩)",,37.5688849422849,127.008775114213
85243,광주각화더샵점,광주 북구 동문대로249번길 12 301동 A103호,062-269-4000,35.1851453984906,126.928881837112
84279,안양귀인점,"경기 안양시 동안구 귀인로 198 (평촌동, 베스트타운)",010-2076-1578,37.3854491845381,126.961141639473
84115,이천로데오점,"경기 이천시 영창로 196 1동 104호(창전동, 이천축협창전동지점)",010-7937-6020,37.2809568328831,127.444320793483
83928,계룡대실점,"충남 계룡시 두마면 대실남북3길 11 104, 105호",042-841-7008,36.2655190264217,127.25888395964
83471,천안병천점,"충남 천안시 동남구 병천면 아우내순대길 18 (병천리, 아우내한방순대)",041-555-8060,36.7593799344489,127.297992587688
83470,나주곰탕거리점,전남 나주시 나주로 144 (중앙동),,35.0315937449917,126.717078180689
83149,김포양촌점,경기 김포시 양촌읍 황금로 117 이젠몰 다동 1층 118호,070-8882-2979,37.6164960068509,126.621275478816
83062,다산메트로3단지점,경기 남양주시 다산중앙로123번길 47 다산메트로3단지아파트 근린생활시설 101호,070-7808-6961,37.622901216945,127.147575444675
83059,인천송도센트럴파크점,인천 연수구 인천타워대로180번길 11 더샵 송도센트럴파크 3차 상가 A동112호,070-7685-8991,37.3896206863296,126.638324048343
82013,청주오창롯데캐슬점,충북 청주시 청원구 오창읍 중부로 760 오피스텔상가 201동 101호,,36.7115474178539,127.437128355216
81954,동대문역사공원역점,서울 중구 을지로43길 34 1층 2호,070-8806-7777,37.5676069611374,127.007604108796
81901,강현농협하나로마트점,강원특별자치도 양양군 강현면 물치천로 14 강현농협협동조합 내,033-671-5577,38.1546522927845,128.606091440984
81710,만리시장점,서울 용산구 효창원로 265-4 (서계동),,37.5508716994054,126.963592319893
81694,부천춘의디아크원점,"경기 부천시 길주로411번길 20 1층 106호(춘의동, 춘의디아크원)",032-678-7524,37.5048750981544,126.788050854122
81688,인천주안제일점,인천 미추홀구 제일로 20 (도화동),070-8244-1515,37.4587436688658,126.67245625791
81590,사천정동점,경남 사천시 사천읍 진삼로 1387 101호,055-786-7866,35.0756247442009,128.083702272829
81464,창원남양위드파크점,경남 창원시 성산구 가양로 97 위드파크아파트 상가 103호,055-266-6663,35.2091950057862,128.703813539868
81279,동대문두타몰점,"서울 중구 장충단로 275 (을지로6가, 두산타워빌딩)",,37.5688849422849,127.008775114213
80500,구로거리공원점,서울 구로구 공원로 21 1층 103호,070-8703-3528,37.4989475595931,126.89136550269
80385,충북제천역점,충북 제천시 의림대로2길 3 (화산동),043-645-4203,37.1288055224587,128.206167130185
80377,의정부신곡건영점,경기 의정부시 능곡로26번길 28 건영아파트상가 104호 105호,,37.7400337074673,127.061722262247
80322,김해삼계에브리데이점,경남 김해시 가야로22번길 3-14 (삼계동),055-338-3106,35.2693476826028,128.86366664845
80122,평택팽성점,경기 평택시 팽성읍 동서촌로 73 (객사리),,36.9647731724537,127.06018940085
80094,구리배탈고개점,경기 구리시 동구릉로 108-1,031-588-2712,37.609183052625,127.13594732272
79982,경성대제1학생회관점,부산 남구 수영로 309,010-9456-7553,35.1384873078988,129.10010311307
79959,광주광천중해점,광주 서구 내방로 415 광천중해마루힐주상복합 상가동 110호,070-4175-2209,35.1590600708758,126.884385436088
79934,대구도남점,대구 북구 도남중앙로7길 20-10 107호,053-716-2294,35.9519702022281,128.582438106842
79883,수색DMC파인시티자이점,서울 은평구 은평터널로 15 125호,010-3008-4677,37.5846837509466,126.894019845962
79520,울산문수점,울산 남구 동산로 54 (신정동),052-260-5592,35.5357701384231,129.301437438463
79476,가락극동점,서울 송파구 동남로18길 21,,37.4943353519895,127.132917052784
79466,서울대신양학술정보관3점,"서울 관악구 관악로 1 (신림동, 서울대학교)",,37.4662872666604,126.94815644252
79442,서정대학교보건복지관점,"경기 양주시 은현면 서정로 27 (용암리, 서정대학)",031-866-5150,37.8564658189262,127.037803548832
79416,원주단계북원여고점,강원특별자치도 원주시 원문로137번길 46 (단계동),033-744-5252,37.3530536219868,127.931496490689
79411,신도림푸르지오점,"서울 구로구 경인로 661 (신도림동, 신도림1차푸르지오)",02-3667-6383,37.5096619486431,126.887986372819
79337,경주동대로점,경북 경주시 동대로 12 (성건동),054-777-1551,35.8555403077267,129.205634420457
79292,경희대국제캠퍼스기숙사점,"경기 용인시 기흥구 덕영대로 1732 (서천동, 경희대학교국제캠퍼스)",070-8287-1564,37.2398001522416,127.081198790803
79099,용인새터마을점,경기 용인시 수지구 현암로 101 애플프라자 103호,031-272-5248,37.3319707041174,127.120449804147
79011,경주외동부영점,경북 경주시 외동읍 계동1길 29 (모화리),070-7776-8574,35.6762932279745,129.332361552843
78995,서귀포일호광장점,"제주특별자치도 서귀포시 중앙로 94 (서귀동, 워너비안경)",064-733-9454,33.2530087442443,126.561532993544
78794,광주남부대점,"광주 광산구 남부대길 38 (월계동, 협동관)",062-710-2080,35.2085501383501,126.839330281005
78668,대구다사e편한점,"대구 달성군 다사읍 다사역로 60 (매곡리, 다사 e-편한세상)",053-710-7747,35.8687256809379,128.456437439486
78653,횡성둔내점,강원특별자치도 횡성군 둔내면 둔내로 60,070-7760-6304,37.5120259663573,128.216988956723
78225,안산본오중점,경기 안산시 상록구 본오로 91 103호,031-406-4006,37.2932524795131,126.866234405276
78216,마산진동협성엠파이어점,경남 창원시 마산합포구 진동면 진북산업로 55 협성엠파이어상가 401동 111호,055-713-2087,35.1209867504771,128.487493962711
77842,원주혁신심평원점,강원특별자치도 원주시 혁신로 37-3 스타타워(혁신로37-3) 104호,033-745-6166,37.3236585795796,127.979378324128
77821,서울여대학생누리관가은점,"서울 노원구 화랑로 621 (공릉동, 서울여자대학교)",,37.6273815936787,127.091621159803
77734,청주서원대점,충북 청주시 서원구 서원남로 57 (모충동),,36.6221861459943,127.481742286798
77596,광주광산우체국점,광주 광산구 무진대로232번길 28 (우산동),062-455-9898,35.1603106344711,126.80557268003
77593,여주KCC스위첸점,경기 여주시 강변북로 2 107동(상가동) 111호 - 112호,031-884-3434,37.3013349583663,127.649043664926
77492,부평일신점,"인천 부평구 경인로1104번길 23 (일신동, 동남빌딩)",032-721-5432,37.4845932981737,126.742148357444
77468,우장산한울점,"서울 강서구 공항대로42길 13 (내발산동, 우장산 한울에이치밸리움)",02-3662-2581,37.5571976844792,126.844163253702
77402,원주무실만대로점,강원특별자치도 원주시 만대로 170-1 103호,033-900-1219,37.3333998259251,127.922822675554
77023,일산오미산삼거리점,경기 고양시 일산동구 성현로 7 (성석동),010-4275-2351,37.7104011112193,126.788002596365
76945,대전은행중앙점,대전 중구 중앙로156번길 25 1층,042-341-7814,36.3280142732838,127.427602336319
76765,동수원월드메르디앙점,경기 수원시 팔달구 중부대로143번길 13 (우만동),031-212-1123,37.2790843738069,127.031930998388
76740,인천산곡역점,인천 부평구 마장로 320 한화프라자 1층 107호,070-4800-6666,37.506592126233,126.703695771403
76193,광주송정명지점,광주 광산구 송도로320번길 16-27 (송정동),062-716-3326,35.1395626204534,126.802627942757
75811,제주도남오거리점,제주특별자치도 제주시 신성로 66 (도남동),064-900-0484,33.4952836827909,126.526382358617
75810,장유월산부곡점,경남 김해시 월산로 151 부영18차 제상가동.1층 104호,055-274-2227,35.2063857762817,128.798311230272
75772,여수웅천지웰점,"전남 여수시 예울마루로 32 상가동 106호(웅천동, 웅천지웰)",061-681-7056,34.7474873583469,127.671662579765
75769,공덕역점,서울 마포구 만리재로 15 104호-105호,070-8883-1112,37.5445849310546,126.95276773044
75765,강릉내곡점,강원특별자치도 강릉시 범일로 630 (내곡동),033-645-2596,37.7432364908313,128.882084195986
75759,역삼2동점,서울 강남구 논현로64길 19,,37.4937186685005,127.042099060272
75667,대전가양점,대전 동구 동서대로1770번길 85 (가양동),,36.3521658159572,127.448170889818
75578,거북시장사거리점,경기 수원시 장안구 정조로 932,031-306-5599,37.2908855343897,127.013050537142
75367,단대죽전점,경기 용인시 수지구 죽전로 150-1 102,031-546-5845,37.3240360457263,127.123845704665
75312,원주상지대길점,"강원특별자치도 원주시 상지대길 9 1층 111, 112호 (우산동)",070-8833-7875,37.3690051627554,127.939940770835
75033,광주전대정문점,광주 북구 자미로 58 (신안동),062-710-4433,35.1711044464267,126.904531448065
74481,청주복대점,충북 청주시 흥덕구 진재로 91 (복대동),070-8287-3236,36.6393870938489,127.429977018651
74448,연산유앤아이점,"부산 연제구 묘봉산로 4 (연산동, 연산동한일유앤아이아파트)",051-710-7879,35.182527821509,129.087449584965
74430,강일리버파크점,서울 강동구 아리수로93길 27,070-8824-2067,37.5656225735773,127.17381574584
74354,청주오창2산업단지점,충북 청주시 청원구 오창읍 2산단로 132 104호,043-211-8887,36.7330415957899,127.450773846303
74335,경주원효로점,경북 경주시 원효로 168 (황오동),054-775-6133,35.8415453841219,129.21925712302
74268,구로대림점,서울 영등포구 시흥대로 607,02-2088-0986,37.4869598013856,126.904342372117
74134,원주미리내도서관점,강원특별자치도 원주시 양지뜰3길 26 (반곡동),010-8918-6094,37.3261326258094,127.983180905086
74128,인천석천사거리점,인천 남동구 남동대로837번길 5 상가 04호,032-710-7551,37.4572439404429,126.708035198601
74114,노원당고개점,서울 노원구 덕릉로 780 동아불암상가 214호,,37.6666919810414,127.079126011496
74105,강원대병원점,강원특별자치도 춘천시 백령로 159 (효자동),033-818-0026,37.8758442616197,127.74394276385
74050,인천청라로데오시티포레안점,인천 서구 경중로 20 청라로데오시티포레안 135호,,37.5487753145463,126.652701683189
73791,광주수완숲안애점,"광주 광산구 장덕로95번길 16 206동 1층 101호(장덕동, 수완2차숲안애)",062-716-4090,35.1960412506558,126.820273448948
73751,남영동점,서울 용산구 한강대로 282,010-3910-5525,37.5434720115918,126.972749951979
73744,이화여대점,서울 서대문구 이화여대길 37 (대현동),010-2739-7031,37.5586328918049,126.945555526996
73436,대전우송대점,대전 동구 동대전로 170 (자양동),042-631-7333,36.3368170289311,127.447930349416
73381,이천장호원점,경기 이천시 장호원읍 장감로 82,031-643-8288,37.1173700261855,127.631749271218
73273,연천차탄리점,경기 연천군 연천읍 문화로 109,070-4048-0251,38.103353923336,127.078053970789
73237,인천주안힐스테이트푸르지오점,"인천 미추홀구 남주길 150 (주안동, 힐스테이트 푸르지오 주안)",070-8657-2428,37.4534301396872,126.676805684128
73024,아산탕정명암점,충남 아산시 탕정면 명암길3번길 2  103호 (명암리),,36.8219970387294,127.058492869639
72941,안양대교점,경기 안양시 만안구 안양로 459-1 102호,031-360-0708,37.4108590007797,126.911008824633
72940,부천여월중앙점,경기 부천시 성곡로 65 1층 104호,032-682-8852,37.519204139177,126.797678221854
72928,청주개신점,충북 청주시 서원구 경신로 40 (개신동),043-237-2023,36.6206657219396,127.446517920631
72685,경복궁점,서울 종로구 자하문로 17-2 (체부동),,37.5776889588523,126.97185707639
72549,제주연동센트럴점,제주특별자치도 제주시 연동13길 37 (연동),064-748-2788,33.4864605457201,126.494574001121
72471,전주송천오송점,전북 전주시 덕진구 사근1길 10 (송천동2가),063-272-1479,35.8664535580426,127.128148127819
72461,의정부을지대학교병원점,"경기 의정부시 동일로 712 (금오동, 을지대학교 의정부캠퍼스 및 부속병원)",,37.7518290378344,127.050695679688
72454,종로6가점,"서울 종로구 종로39길 40 (종로6가, 현마빌딩)",,37.5726062744407,127.00496899732
72434,김포가현초교점,경기 김포시 김포한강2로 96 102,031-986-1253,37.6388897687662,126.672821309657
72427,신설동역점,서울 동대문구 왕산로 18 1층 103호,070-8657-2335,37.5760627896702,127.025612642763
72337,광주무등시장점,광주 남구 군분로 32,062-716-2253,35.1366405837164,126.894635141908
72315,대구호산점,대구 달서구 호산동로 183,053-262-0072,35.8516350019815,128.485584696853
72004,광교역경기대점,"경기 수원시 영통구 대학3로4번길 2 (이의동, 광교 파인렉스2)",070-4113-0085,37.2996217923697,127.04312878958
71997,목포북항점,전남 목포시 청호로 180 원산프라자 1층 103호,061-982-1203,34.8066803370393,126.373336223383
71996,범방점,부산 강서구 범방3로60번길 3 (범방동),051-831-0507,35.1486426257926,128.881026142405
71982,광주풍암중흥점,광주 서구 풍암순환로109번길 1 1층,062-456-1090,35.121302405662,126.883378837488
71764,춘천장학점,강원특별자치도 춘천시 동면 춘천로449번길 30-1,033-242-5601,37.8949358759563,127.754073080744
71745,범계공항터미널점,경기 안양시 동안구 시민대로159번길 25 1층 125호,070-7776-6346,37.3905777925779,126.947562354355
71669,진례클레이아크점,경남 김해시 진례면 진례로 275-38 1층,055-342-0551,35.244348896886,128.749215423613
71652,영통아이파크캐슬점,"경기 수원시 영통구 덕영대로 1410 영통아이파크캐슬 1단, 제상가 비동 101호, 102호",031-308-3015,37.2417815940293,127.043698544489
71635,강동고덕역점,서울 강동구 고덕로 256 1층 111호,02-441-9468,37.5546198628524,127.154105278912
71542,강원횡성시장점,강원특별자치도 횡성군 횡성읍 횡성로 412,033-345-1117,37.4893861088492,127.986377264213
71510,안성공도센트럴파크점,경기 안성시 공도읍 도화길 67-21 상가동 1층 103호,070-8882-7570,37.0087937102296,127.175004098212
71493,시흥은계호수공원점,"경기 시흥시 은계중앙로 238 (은행동, 호수의 아침)",070-4797-8453,37.4453700793062,126.804192615827
71226,연신내로데오점,서울 은평구 통일로83길 5-9 (갈현동),070-4833-8467,37.6204624399289,126.919196860472
71225,경기광주신현점,경기 광주시 신현로 75,,37.3605499080688,127.15537762595
70964,광산사거리점,서울 강북구 노해로 88,02-995-4848,37.6433057554597,127.022676033029
70904,등촌현대점,서울 강서구 등촌로39길 13,02-2655-2297,37.5455276780143,126.861499293119
70762,대치중앙점,서울 강남구 삼성로 329 101호,02-6289-6532,37.5010212748665,127.059413456816
70756,수원영통역점,경기 수원시 영통구 봉영로 1569 102호,031-548-1819,37.2520637842978,127.07102269696
70658,정릉아리랑점,"서울 성북구 북악산로 851 (정릉동, 정릉2차 e-편한세상)",,37.6002510241826,127.018315403612
70554,제주이호테우점,제주특별자치도 제주시 테우해안로 174 1층(이호일동),,33.4968841388909,126.452152744824
70550,광명소하2동점,"경기 광명시 오리로 346 (소하동, 행운드림프라자)",02-899-8695,37.4332803049646,126.879772772494
70534,광주월계초등학교점,광주 광산구 월계로 84 (월계동),062-971-8580,35.2124591468075,126.835062363165
70453,울산삼산점,울산 남구 왕생로128번길 29 (삼산동),052-700-8605,35.5455484078229,129.331833134355
70381,부천오정산업단지점,경기 부천시 오정로211번길 39-6 (오정동),,37.52892811238,126.78174454428
70378,용산아스테리움점,"서울 용산구 한강대로30길 25 (한강로2가, 아스테리움 용산)",010-7775-2188,37.527358545339,126.968861735609
70097,대전원내점,대전 유성구 진잠로78번길 64 (원내동),042-541-0630,36.2991628924612,127.319544889848
70091,덕포덕상초점,부산 사상구 덕상로 5,051-710-7310,35.1721194538555,128.988495190978
69896,테헤란아이파크점,서울 강남구 테헤란로52길 16 상가-1 제지1층 제3호,070-8836-9051,37.5025006142352,127.046384009751
69867,일산백석역점,경기 고양시 일산동구 중앙로 1047 영림브레아오피스텔 1층 (108호),031-994-5553,37.6431092569009,126.787197904243
69866,의왕삼동프라자점,"경기 의왕시 장안남북로2길 6 105호(삼동, 삼동프라자)",031-461-1371,37.3191870217526,126.958556141352
69865,휘경주공점,"서울 동대문구 한천로46길 42 (장안동, 장안동 마루하우스)",070-8833-9494,37.5814628804522,127.070706551458
69692,대전을지대병원점,대전 서구 둔산로65번길 81 1층 일부호,042-471-3888,36.3550111666563,127.380979341527
69673,세종전통시장점,세종특별자치시 조치원읍 조치원로 22-1,070-4323-3773,36.6012697003938,127.299265444044
69537,평택고덕국제도시점,경기 평택시 함박산9길 11 (고덕동),031-662-7790,37.0387776040306,127.030783064661
69518,후암시장점,서울 용산구 한강대로104길 62 (후암동),070-4910-8887,37.5501300259798,126.975599860012
69515,파주운정초롱초교점,경기 파주시 양지로 123 진영프라자(101호),070-4212-9769,37.7096734940359,126.722623589947
69232,부산경찰청점,"부산 부산진구 동평로405번길 105 (양정동, 보성오페라골드)",051-868-0777,35.1779951696604,129.072396058117
69172,숭실대점,서울 동작구 상도로 357,,37.4969397553084,126.953540835787
69048,나주혁신문화로점,전남 나주시 문화로 226 1층 103호,061-334-3777,35.0189410575221,126.785226899533
69045,전주어은점,전북 전주시 완산구 어은로 18 (중화산동2가),063-902-1183,35.8164915557883,127.124820886246
68929,청주세중테크노밸리점,충북 청주시 흥덕구 공단로 134 112호,070-8657-0220,36.6425194261701,127.437106566964
68926,의령전통시장점,"경남 의령군 의령읍 의병로 224 (중동리, 나드리김밥)",055-574-7720,35.3195675463691,128.261205292558
68896,녹번점,서울 은평구 은평로 229 (녹번동),,37.6012766434765,126.933244764532
68731,원주기업롯데캐슬점,강원특별자치도 원주시 지정면 가곡로 70-1 124호,,37.3778199976528,127.876475914959
68715,마산해양공원점,경남 창원시 마산합포구 해안대로 107-1 (월남동2가),055-713-2622,35.1855034337737,128.563181756517
68130,부천테크노파크점,경기 부천시 석천로 345,,37.5198102968705,126.764775950683
68129,용인외대점,경기 용인시 처인구 모현읍 외대로 32 104호,031-321-0133,37.3360838961278,127.252807847382
68126,송파방이점,서울 송파구 마천로 79,02-401-4696,37.507478828335,127.12920802596
68085,양주덕계점,경기 양주시 평화로 1414,,37.8172156288672,127.046421000148
68020,대구현풍중앙점,대구 달성군 현풍읍 현풍중앙로 56 (하리),053-716-1228,35.6943021487375,128.445629261712
68019,대구상인은하점,대구 달서구 월곡로 332-1 (상인동),053-631-2287,35.8225914819954,128.533822211719
67941,고관수정점,부산 동구 중앙대로349번길 42,051-931-0931,35.126329656245,129.045052746964
67940,수원인계JK점,경기 수원시 팔달구 인계로108번길 9 1층 102호(인계동),070-4786-7566,37.2672659687178,127.02947739353
67935,구로4동점,서울 구로구 구로동로 78 1층,02-859-7776,37.4858241548644,126.885855021118
67784,고양주교점,경기 고양시 덕양구 원당로113번길 10 1층 103호,070-8821-0056,37.6622885928587,126.837794030208
67645,수유시장점,서울 강북구 도봉로67길 18 A-17호,02-987-1679,37.6307289053601,127.022668132796
67529,금천구청점,서울 금천구 시흥대로63길 43 (시흥동),070-4150-8000,37.455173164861,126.89727265344
67528,춘천남부초점,강원특별자치도 춘천시 미나리길11번길 12-13 1층,,37.8588151909498,127.72761325531
67454,인천계산시장점,인천 계양구 계산천동로 18-1 (계산동),010-5008-6971,37.5382590716001,126.724329366937
67132,대전용전점,대전 동구 계족로 455,042-369-1030,36.3524001934242,127.432151246421
67065,과천엠타워점,"경기 과천시 과천대로2길 6 (갈현동, 과천 테라스 원)",070-8835-1130,37.4071768608774,126.979850858071
67045,대치은마점,서울 강남구 도곡로 516 101호,,37.4991812807975,127.062987853204
67044,창원성산반도유보라점,경남 창원시 성산구 비음로 167 131동 B102호,055-264-6623,35.2191227811732,128.707952617811
66867,인천옥련중학교점,인천 연수구 청량로 210 105호,,37.4250759799029,126.653321085493
66802,구미1공단점,경북 구미시 산호대로 213 1층 112호,,36.1027099525695,128.384950641679
66507,창원대방성원3차점,"경남 창원시 성산구 대암로 80 (대방동, 성원3차아파트상가)",055-609-3777,35.214999992587,128.705299860616
66488,평택소사벌중흥점,"경기 평택시 비전3로 115 (죽백동, 평택소사벌중흥에스-클래스에코시티)",070-8657-2191,37.0085749450931,127.111635856665
66487,분당미금중앙점,"경기 성남시 분당구 정자일로 21 (금곡동, 삼라마이다스빌)",070-8657-0288,37.3516535634787,127.105899662007
66238,당진수청호반점,충남 당진시 수청2로 48 105호,,36.8880434919705,126.652779446387
66193,안산시그니처타워점,경기 안산시 상록구 해양3로 15 (사동),070-8711-0223,37.2857490842205,126.8280626042
66169,신월5동점,서울 양천구 화곡로 105 (신월동),02-6341-0510,37.5400681885507,126.833600490747
66141,칸마트엘시티점,"부산 해운대구 달맞이길 30 (중동, 엘시티)",051-731-1666,35.1613327099223,129.168013841974
66044,완주삼례우석대점,전북 완주군 삼례읍 동학로 115 (후정리),063-287-2580,35.9150618976245,127.0683556483
66010,면목2동점,서울 중랑구 봉우재로 40,070-7717-7742,37.5903909117034,127.077722681025
66000,남양주호평오거리점,경기 남양주시 호평로68번길 1 (호평동),031-591-5679,37.656057585895,127.247931694121
65997,원주원동사거리점,강원특별자치도 원주시 무실로 113 070-7803-8884,강원특별자치도 원주시 원동 278-1,37.3440343814156,127.943714741464
65827,자양전통시장점,서울 광진구 자양로15길 43 (자양동),02-6213-1740,37.5353581327912,127.081357385618
65732,인천논현라피에스타점,인천 남동구 논고개로 61 라피에스타 상가 121호,032-212-0411,37.3975373516636,126.727520375664
65617,광주첨단롯데점,광주 광산구 첨단강변로99번길 11 (쌍암동),062-973-2050,35.2154098404973,126.851890517525
64881,일산장항공단점,경기 고양시 일산동구 장항로 329 (장항동),010-9058-5191,37.6442979550014,126.763509103905
64878,영통플래티넘베이스점,경기 수원시 영통구 망포로 142 B동 101-2호,070-8657-0543,37.2408811857691,127.049411756331
64872,인천송도호반써밋점,"인천 연수구 랜드마크로 20 (송도동, 호반써밋 송도)",070-7811-3754,37.4160752388975,126.624536749383
64805,창원중앙경남오피스텔점,경남 창원시 성산구 중앙대로 37 경남오피스텔 105호,055-286-1236,35.2192847174755,128.675216538655
64629,마포광흥창점,서울 마포구 독막로 176,070-7576-0147,37.5472535249257,126.933045939688
64310,목포역점,전남 목포시 수문로 13 13-1,061-980-0303,34.7915219449213,126.384446212878
64268,원주터미널점,강원 원주시 장미공원길 71-12 1층,033-748-5789,37.3455289169798,127.930114170747
64220,당진문예의전당점,충남 당진시 시청1로 82 103호,041-355-0423,36.8912187266472,126.638621728906
64194,일산한뫼초점,경기 고양시 일산서구 고양대로 632 아카데미 상가 1층 109호,070-8657-1437,37.6855315551009,126.766235181339
64168,주촌무지개공원점,경남 김해시 주촌면 선천북로42번길 12-7 (선지리),055-724-1243,35.2416487037714,128.835296239486
64129,진주평거들말대경점,"경남 진주시 석갑로53번길 28 (평거동, 들말대경아파트)",055-795-5888,35.1749893873405,128.06309705744
64023,아산배방자이점,충남 아산시 배방읍 호서로 458 상가2동 1층 110호 (배방자이1차아파트),070-8657-1717,36.7704051461874,127.081742549902
63973,인천송도아트포레점,인천 연수구 인천타워대로 257 송도아트포레푸르지오시티 B동 112호,070-4639-1004,37.3937618144703,126.633308276601
63821,대구율하광장점,대구 동구 안심로22길 60-23 (율하동),053-965-5817,35.8629712831443,128.694576180937
63781,초읍대공원점,부산 부산진구 새싹로 277 (초읍동),051-715-3077,35.1808204977464,129.047101869808
63762,인천용현토금점,인천 미추홀구 토금남로 2 노블레스상가 105호,070-7612-8873,37.452898940406,126.632915005972
63761,진량이안점,경북 경산시 진량읍 일연로 745-1 (선화리),053-853-9998,35.874460772584,128.80431839894
63687,광주학운평화점,광주 동구 증심천로 23 (학동),062-223-6584,35.1306117593717,126.932302776648
63672,의정부어룡점,경기 의정부시 용현로105번길 27 (민락동),,37.7426580047332,127.087062057649
63304,일산어반스카이점,경기 고양시 일산서구 고양대로 666 어반스카이 D동 112호,031-8076-5165,37.6835547426274,126.769264328922
63290,동두천지행점,경기 동두천시 지행로 63 104호,,37.8926770752473,127.054251284974
63187,인천주안1동점,인천 미추홀구 석바위로 87,070-8657-2577,37.4611268907632,126.682915320304
63095,인천동암역점,"인천 부평구 아트센터로 24 상가 1,2층",032-434-2333,37.4701161520486,126.703313476376
63094,광주효천2지구점,"광주 남구 효우2로 26 101호(행암동, 운재투빌딩)",062-462-1222,35.1019502522373,126.889339949031
63005,서대신역점,"부산 서구 대티로 178 (서대신동2가, 대신해모로센트럴아파트)",051-710-6666,35.1113590671005,129.011559245152
62914,삼육서울병원점,서울 동대문구 망우로 83,070-7756-2787,37.5902855836648,127.062223734368
62751,송파헬리오시티점,서울 송파구 가락로 56 (석촌동),070-8835-9072,37.4994684325153,127.10258579435
62294,대전죽동점,대전 유성구 유성대로 875,042-822-7415,36.3697424418574,127.339567095425
62278,신당감점,부산 부산진구 백양순환로 163,051-710-7004,35.1662873703019,129.041699417521
62261,안양삼덕공원점,경기 안양시 만안구 병목안로 20 104호,031-469-1727,37.3989549861312,126.918371863425
62247,화성반월점,경기 화성시 영통로60번길 31,,37.2395851320879,127.066990775035
62221,고양덕은리버워크점,"경기 고양시 덕양구 청초로 66 108호(덕은동, 덕은리버워크)",,37.5780164503878,126.862525363288
62220,평택포승점,경기 평택시 포승읍 여술2길 45,070-4032-5236,36.9892206127837,126.843869984973
62089,구로궁동점,서울 구로구 부일로15길 36-2 (궁동),02-2619-1009,37.4945102560725,126.833215031562
62044,목포남악아이파크점,전남 무안군 삼향읍 남악2로74번길 37 102호,061-283-5956,34.8130707970098,126.458951456284
62007,시흥대야파크점,"경기 시흥시 비둘기공원7길 27 (대야동, 서해아파트)",031-316-2225,37.4435582473924,126.793043686746
61997,구포KTX역점,부산 북구 낙동대로1694번길 6 1층,051-715-5056,35.2058006851703,128.99654558077
61994,진량1공단점,경북 경산시 진량읍 공단1로 34 (신상리),053-852-1473,35.873639101507,128.822723484202
61993,경주터미널점,경북 경주시 태종로685번길 2 (노서동),054-624-3658,35.8389058293836,129.203661486074
61979,장유삼문아쿠아점,경남 김해시 번화2로 2 1층 109호,055-724-2305,35.1894894900263,128.806759789416
61464,대전송촌5단지점,대전 대덕구 동춘당로44번길 27,070-8657-1010,36.363521305497,127.445204092925
61463,전북도청점,전북 전주시 완산구 홍산로 246 1층 107호,063-224-7774,35.8155398115331,127.106472374574
61462,용인수지e편한세상점,경기 용인시 수지구 포은대로313번길 7-10 124동 105호,031-272-7778,37.3167020188334,127.083888805312
61461,당산2동점,서울 영등포구 당산로35길 8,070-7670-4013,37.5290741487772,126.897000673102
61460,삼척교동점,강원 삼척시 정상로 79 청솔2차아파트상가 209동 105호,,37.4486933519995,129.174787625828
61459,왕십리역사점,서울 성동구 왕십리광장로 17 4층 135호,02-2292-6778,37.5614417528647,127.038394194396
61458,시흥시화나래점,경기 시흥시 거북섬로 207 1층 105호,,37.3227222170291,126.687571456348
61345,당진읍내점,충남 당진시 계성3길 6,,36.8980403720727,126.634646601952
61230,천안청당초교점,충남 천안시 동남구 청당5로 36 (청당동),070-7697-5926,36.7803449654718,127.152661634829
61229,대전법동시장점,대전 대덕구 계족산로5번안길 22,042-624-5560,36.3670744496769,127.431745556274
61224,대구송현역점,대구 달서구 월배로 414 (송현동),053-655-3516,35.8310090524707,128.552100648518
61013,김천혁신점,"경북 김천시 혁신3로 15 (율곡동, 율곡스퀘어 Ⅵ)",,36.1173178442915,128.182926839406
61012,양산삼성명가타운점,경남 양산시 평산중앙로 66,,35.3851882078274,129.15242733002
60998,판교제2테크노밸리점,경기 성남시 수정구 창업로 55 디엔써밋에디션 상가 104호,07082826040,37.4109398373746,127.095217381654
60997,공릉2동점,서울 노원구 공릉로38길 5,02-6465-9855,37.6233497402709,127.079748604844
60602,은평서부병원점,서울 은평구 응암로 331,02-3157-2132,37.6008396815677,126.922101117121
60362,광주장덕먹거리타운점,광주 광산구 장신로20번안길 38 (장덕동),062-955-1074,35.1904674386247,126.811367156831
60352,동덕여대점,서울 성북구 화랑로11길 37,02-941-6157,37.603952827898,127.042225428038
59901,서울성균관대점,서울 종로구 성균관로 12-1,,37.5840624104735,126.997883301249
59900,개금백양로점,부산 부산진구 백양대로320번길 4,051-892-5007,35.1542308560473,129.016624181542
59828,당산중앙점,서울 영등포구 양평로 16,02-2675-7715,37.5328855588883,126.90450018213
59613,인천가정법원점,인천 미추홀구 경원대로 893,032-422-0423,37.4625568292746,126.689478293737
59608,과천스마트K점,"경기 과천시 과천대로7길 20 (갈현동, 과천 스마트케이 업무시설)",,37.4141598122611,126.979090684295
59554,전주에코시티점,전북 전주시 덕진구 세병로 26 101호,063-252-9442,35.8741543077898,127.127727780661
59513,목포하당서남점,"전남 목포시 비파로 21 (상동, 서남빌딩)",,34.800704541057,126.42806630315
59510,춘천퇴계점,강원 춘천시 효자로 3 (퇴계동),070-8822-2055,37.8652662406263,127.725830549241
59509,포천운천점,경기 포천시 영북면 운천로 23 (운천리),,38.0911459909157,127.271832749892
59508,광주운림중학교점,"광주 동구 의재로 123 (운림동, 무등파크맨션)",062-222-6148,35.132534775324,126.941387022042
58993,청평중앙점,경기 가평군 청평면 청평중앙로 13,031-585-4331,37.7362909893559,127.416460839289
58992,안양국제유통단지점,"경기 안양시 동안구 엘에스로 76 (호계동, 국제유통단지 가동)",,37.3700483081148,126.953128673007
58991,김해어방인제로점,경남 김해시 인제로 97,055 337 2200,35.2372016044922,128.904060702172
58920,망원시장점,서울 마포구 망원로8길 53 (망원동),,37.5550777785306,126.906503773258
58917,성수카페거리점,서울 성동구 뚝섬로9길 20 (성수동2가),070-8275-4807,37.539928677681,127.056230858393
58916,청계천베네치아점,서울 중구 청계천로 400 메가몰동 1031호,070-8287-1627,37.5708105464699,127.021463886656
58650,포항양학점,경북 포항시 북구 양학로9번길 14 (득량동),054-614-0990,36.0238029080694,129.35042444162
58605,수안역점,부산 동래구 명륜로75번길 12 (수안동),051-710-3833,35.2007570108588,129.083382866624
58602,영암삼호점,전남 영암군 삼호읍 삼호중앙로 202 (용앙리),061-461-5472,34.7450536483798,126.472814410365
58601,나주혁신한빛로점,전남 나주시 한빛로 41,,35.0252400106772,126.779763702331
58312,구덕운동장점,부산 서구 대신로 83 (서대신동3가),0507-1362-5247,35.1158595690425,129.012822254425
58311,하남감일중앙점,경기 하남시 감일백제로180번길 17 제1동 115호,02-6104-1015,37.5091544674194,127.154873948836
58310,강서공항점,"서울 강서구 방화동로 57 1,2층",070-8691-4719,37.5657051527104,126.811986686776
58309,인천국립생물자원관점,인천 서구 환경로 42 1층,,37.5691386523628,126.638534371391
58306,창동역서부점,서울 도봉구 노해로63길 78,02-990-0279,37.652585903674,127.046332152249
58305,시흥하상동점,경기 시흥시 연성로 88 102호,,37.3906103519235,126.813131870061
57971,대전시청역점,대전 서구 둔산로 130,070-8287-2851,36.3509910661506,127.388163607113
57912,시흥은행나무점,서울 금천구 금하로 714 1층,02-807-7257,37.4508116639954,126.908963176252
57830,시흥댓골점,경기 시흥시 대야로 4,,37.4441669334383,126.788996193189
57758,천안신부노블시티점,"충남 천안시 동남구 신부8길 21 상가1-1,2동 지하1층 120호",070-4888-3987,36.8170432327325,127.161310147332
57755,인천주안힐스테이트후문점,인천 미추홀구 인주대로 325,070-5057-3224,37.4520773960266,126.672594615982
57754,신금호중앙점,"서울 성동구 금호산길 67 (금호동2가, 금호빌딩)",,37.5543436424505,127.019507630427
57753,오산원동초점,경기 오산시 오산로 93,031-375-2212,37.1351674492757,127.06868265953
57752,고양덕은드림코어점,경기 고양시 덕양구 으뜸로 124 109호,02-3159-2232,37.5791147507252,126.869746197258
57751,일산라페스타점,경기 고양시 일산동구 무궁화로 31-2 110호,031-994-2029,37.663097714551,126.767857011703
57750,일산라페스타점,경기 고양시 일산동구 무궁화로 31-2 110호,031-994-2029,37.663097714551,126.767857011703
57681,수유3동점,서울 강북구 도봉로 386,02-908-9554,37.6409840098933,127.029225259709
57601,인천루원지웰시티점,인천 서구 가정로 406 104호,070-8287-1937,37.5214629875846,126.673952289268
57598,광주효천중흥점,광주 남구 효우로 332-7 1층 109호,062-673-0003,35.0997726593026,126.881910009701
57497,대구봉덕점,대구 남구 이천로 16 (봉덕동),010-5333-8582,35.8420498504304,128.598326359937
57199,부안터미널점,전북 부안군 부안읍 석정로 210 (봉덕리),063-581-7999,35.7266500369747,126.736971260178
57192,군포신환사거리점,"경기 군포시 금산로 1 (금정동, 아산 나부빌)",031-429-1027,37.3627716232316,126.941053326051
57128,인천서부경찰서점,인천 서구 탁옥로97번길 2,070-8287-3383,37.5438123479602,126.680690014002
57109,우암자유점,부산 남구 우암로154번길 50 (우암동),051-715-1540,35.1254223901093,129.081577870921
56972,평택점촌점,경기 평택시 점촌로28번길 2 (서정동),070-8633-8632,37.0632072084423,127.057002105595
56782,삼각지역점,서울 용산구 한강대로62가길 20,02-798-0002,37.5346599165901,126.974996989519
56767,다산부영애시앙점,"경기 남양주시 도농로 24 다산동, 부영애시앙 상가",070-7500-6543,37.6082044738715,127.157753794985
56758,인천신흥시장점,인천 중구 서해대로454번길 7,032-888-6636,37.4663427077421,126.635627425428
56757,광주농성SK뷰점,광주 서구 상무대로1147번길 16 지하2층 109호,062-716-7176,35.1546004665468,126.886153781079
56703,부개주공점,"인천 부평구 부개로 61-6 105,106호",,37.5032925425457,126.739508114213
56481,울산대정문점,울산 남구 대학로 96 2층,052-221-2600,35.5434203591127,129.260273705497
56425,김천율곡점,경북 김천시 혁신6로 8 1층 101호,054-434-0488,36.123865217807,128.182075816535
56422,충남예산산성점,충남 예산군 예산읍 벚꽃로127번길 2,041-335-7979,36.6921989845957,126.835576036797
56421,금산터미널점,충남 금산군 금산읍 후곤천길 83,041-753-6800,36.1051845032355,127.491060476392
56352,용인신갈오거리점,경기 용인시 기흥구 신갈로58번길 1 (신갈동),031-283-7760,37.2720141794972,127.10601328448
56347,숙명여대점,서울 용산구 청파로47길 83,,37.5449471948774,126.965742817057
56300,덕계스타프라자점,경기 양주시 회천중앙로 248 111호,,37.819666000098,127.053550763661
56299,명지대정문점,서울 서대문구 거북골로 21,070-8287-2956,37.580103230284,126.924978012449
56147,고양삼송듀클래스점,경기 고양시 덕양구 삼막3길 5 B103호,070-8817-8282,37.6676637572677,126.921111431583
56144,고양삼송듀클래스점,경기 고양시 덕양구 삼막3길 5 B103호,070-8817-8282,37.6676637572677,126.921111431583
56143,일산정발산점,경기 고양시 일산동구 일산로441번길 6-19 (정발산동),031-923-7633,37.6733642115764,126.776405323144
56108,인천검단대성베르힐점,인천 서구 이음1로 154 검단대성베르힐 상가 106호,,37.5820751971407,126.708342931455
55950,성남수정구청점,"경기 성남시 수정구 수정로 286 1층 101, 102호",,37.4508853107375,127.147443890099
55891,장성삼계점,전남 장성군 삼계면 사창로 35 (사창리),,35.257618287586,126.667444223433
55613,안양평래푸점,경기 안양시 동안구 경수대로884번길 19 (비산동),031-360-5685,37.3974806944989,126.938734581424
55612,한남순천향점,서울 용산구 대사관로 64 (한남동),070-8833-5555,37.5332385085066,127.0051666417
55611,제천청전점,충북 제천시 용두천로 313 충청북도 제천시 청전동 626-1 101호,043-645-3400,37.1533321318737,128.216615975027
55586,대연사거리점,부산 남구 진남로 6 1층,051-714-2368,35.1355928696658,129.091979217519
55501,미아사거리역점,서울 강북구 도봉로 52 와이스퀘어1층,02-6312-6199,37.613699372646,127.03052852605
55500,부산과기대점,부산 북구 시랑로 80 1층,,35.198466448022,129.005702804644
55391,군산수송오투점,전북 군산시 수송로 137 101호,063-465-0538,35.9642566546914,126.710509823841
55388,청주하복대점,충북 청주시 흥덕구 진재로 40 1층(복대동),043-900-1704,36.6347680320963,127.429690831333
55383,목포근대역사점,전남 목포시 영산로 50 (대의동1가),061-982-2015,34.7870871439251,126.384246115567
55382,인천 청라힐데스하임점,인천 서구 청라라임로16번길 30 (청라동),,37.5290871435207,126.653478799072
55381,안산상록수점,경기 안산시 상록구 본삼로 41 (105호),031-362-6005,37.3011177944708,126.8647173101
55292,동래시장점,부산 동래구 명륜로112번길 42-1 (수안동),051-977-4000,35.2032045602995,129.08520798149
55169,김해내삼공단점,경남 김해시 주촌면 서부로1499번길 11 1층,055-338-6888,35.2315774960855,128.818902295881
55093,대구다사점,대구 달성군 다사읍 대실역북로1길 9 (매곡리),053-710-9352,35.8586243051247,128.465711871491
54882,하구운사거리점,경기 수원시 권선구 구운중로3번길 5 1층(구운동),,37.2752709959285,126.973168269004
54848,군포한림엘타워점,"경기 군포시 공단로140번길 22 (당정동, 한림엘타워)",,37.3571682321896,126.952260773803
54631,남양주금곡점,경기 남양주시 금곡로 72,031-591-6366,37.6344723162941,127.21111058435
54570,광주동림하나로점,광주 북구 유림로 140 (동림동),062-716-1016,35.1748669820134,126.864211483972
54549,대전노은점,"대전 유성구 은구비남로33번길 5 (지족동, 경남아너스빌2)",042-826-5849,36.3725326914099,127.318987426367
54474,인천송도센트로드점,"인천 연수구 인천타워대로 323 (송도동, 송도 센트로드)",,37.3995231669444,126.629572683174
54231,안산중앙점,경기 안산시 단원구 고잔로 108 1층 129-1호,070-8834-0875,37.3191816033767,126.834163939244
54130,수원고색초점,경기 수원시 권선구 매송고색로691번길 2,031-292-9005,37.2508847685896,126.980191475164
54129,기업은행본점,"서울 중구 을지로 79 (을지로2가, 기업은행)",02-751-3743,37.5664935315447,126.986565470789
54126,영도동삼점,부산 영도구 와치로 252,051-715-5325,35.0753495681978,129.069002708111
54123,김제검산점,전북 김제시 검산택지3길 25 102호,063-546-5002,35.8022275291293,126.903105034998
54038,마들로또명당점,"서울 노원구 동일로 1493 (상계동, 상계주공아파트(10단지))",02-3391-2819,37.6616423693886,127.058001700205
54037,고척시장점,서울 구로구 경인로47길 118 (고척동),02-2687-7803,37.5038672459775,126.863739802829
54036,평택에이스고덕점,경기 평택시 고덕중앙로 290 172호,031-633-1966,37.0457082267757,127.052995015612
53988,양산목화점,경남 양산시 물금읍 목화로 47 (범어리),0553866766,35.3314074478975,129.001063349783
53743,망포플래티넘베이스점,경기 수원시 영통구 덕영대로 1470 130-131호,070-8830-9595,37.244343677937,127.050795572756
53720,화성봉담신수마을점,경기 화성시 봉담읍 신수길 6-21 105-6호,031-292-0777,37.2279283161562,126.940657013588
53702,인천경인여대점,"인천 계양구 계양산로 66 (계산동, 세경빌라)",,37.5476253978275,126.722834079727
53549,이안동대구점,대구 동구 송라로28길 14 303동 1층 101호,053-953-1311,35.8789850353383,128.615914720837
53392,정읍수성점,"전북 정읍시 수성로 45 (수성동, 정읍수성우체국)",,35.5820058950587,126.85504701834
53294,화성봉담원희캐슬점,경기 화성시 봉담읍 동화길 51 프리미엄원희캐슬 106호,,37.2191342141303,126.955551866749
53291,남산그린점,부산 금정구 금강로681번길 64,051-715-7104,35.2683095939603,129.085451636609
53288,진주칠암점,경남 진주시 동진로20번길 21-7 (칠암동),055-795-2585,35.1783221765724,128.09427174529
52975,광주금호중흥점,"광주 서구 마재로 21 120동 1층 104호(금호동, 중흥아파트)",062-716-1716,35.1322304010863,126.861414116363
52974,대전한빛점,대전 유성구 어은로 57 1층  107~110호,042-864-0509,36.3635250963285,127.353659081769
52953,대전한밭대점점,대전 유성구 학하서로121번길 45-6 1층,042-825-0952,36.3494513418198,127.298730401582
52698,공항덕두점,부산 강서구 공항앞길 6 1층 101호,0519410158,35.1804512398584,128.954486877186
52683,범계에이스점,경기 안양시 동안구 시민대로109번길 29 109,,37.3879954795923,126.94368418193
52680,안산고잔역남부점,경기 안산시 단원구 광덕4로 108,070-7576-3440,37.3151668443315,126.824281064099
52675,중랑면목시장점,서울 중랑구 면목로 293 A동 101호,02-6012-2209,37.5789582952815,127.0861690858
52620,정관덕산점,부산 기장군 정관읍 정관덕산길 41 (방곡리),,35.3226360523061,129.184359513472
52525,원주관설홈플러스점,강원 원주시 나비허리길 168 (관설동),033-766-6161,37.3184092354193,127.965426577064
52446,중랑망우점,서울 중랑구 망우로 353 104호,070-7778-9332,37.5983328190955,127.091624142481
52429,의정부효자초교점,경기 의정부시 부용로 209,,37.7500185689895,127.079785403307
52328,장유신문리인점,경남 김해시 장유로334번길 10 1층,0507-0289-3172,35.1963687992288,128.815550020497
52327,당산한강포스빌점,서울 영등포구 양평로 67 1층 102호,02-2636-6553,37.5349350800223,126.899311690856
52210,평촌꿀벌말점,경기 안양시 동안구 흥안대로456번길 82 101호,070-8287-1821,37.3931856374362,126.979948221755
52181,고대안암오거리점,서울 성북구 안암로9가길 80-1,,37.5825279551998,127.028399250896
51895,대전도룡점,대전 유성구 대덕대로 594 106호,,36.3859409816655,127.379004969319
51894,완도해변공원점,전남 완도군 완도읍 개포로 184 1층,061-555-0755,34.3203451051051,126.747921623602
51893,순천법원점,전남 순천시 왕지5길 11,061-722-7226,34.9722041657817,127.52361353642
51892,천안성환점,충남 천안시 서북구 성환읍 성환1로 240,0502-1949-5898,36.9161101428351,127.128286824271
51885,제천하소점,충북 제천시 하소로 55 1층 101호,043-642-7773,37.1410958726723,128.198744790131
51884,논산취암점,충남 논산시 중앙로410번길 15 (취암동),041-732-9131,36.2015694089492,127.089604015605
51883,서대전네거리점,대전 중구 계룡로874번길 13 (오류동),,36.3231053792768,127.410403994989
51882,당진송악점,충남 당진시 송악읍 신복운로3길 23-1 1층,041-970-8950,36.9409949741669,126.782111599897
51881,화성병점사거리점,경기 화성시 경기대로 1031 1층,070-4833-8997,37.207699635389,127.035003219347
51880,김포시청점,경기 김포시 돌문로 50,031-988-9004,37.6195515805242,126.717783437003
51879,송파몽촌토성점,서울 송파구 백제고분로50길 8 (방이동),,37.5140856634855,127.115694303793
51878,김포고창마을점,경기 김포시 김포한강2로 220 102호,,37.6452219573571,126.661298572074
51877,서초대교점,"서울 서초구 서초중앙로22길 8 1층, 1호",02-525-5534,37.4930329589862,127.01439203136
