매장명,주소,전화번호,위도,경도
남양주2청사점,"경기도 남양주시 경춘로 490, 주건축물제1동 1층 1172호 (다산동,힐스테이트 지금 디포레)",031-558-3370,37.6100406969272,127.167362907457
파주운정산내점,경기도 파주시 청암로17번길 51,031-944-3383,37.7284115849885,126.735195447669
송도센트럴점,인천광역시 연수구 센트럴로 194,032-833-0033,37.3937862653635,126.641874180513
신세계대전점,"대전광역시 유성구 엑스포로 1,대전신세계 타트앤사이언스 지하 1층 A67호(도룡동)",번호없음,36.3751817693989,127.381765372066
익산미륵사지휴게소점,전라북도 익산시 여산면 호남고속도로 191 공차 익산미륵사지휴게소점,번호없음,36.047716062589,127.102809412973
하남미사학원가점,"경기도 하남시 미사강변대로 34번길 72, 골든프라자 105호",031-795-8850,37.5558032406433,127.187768423139
롯데부산광복2호점,"부산광역시 중구 중앙대로 2, 4층",번호없음,35.0979848964696,129.036632251021
잠실월드몰점,서울 송파구 올림픽로 300 지하1층,번호없음,37.5137129859207,127.104301829165
인천터미널점,"인천 미추홀구 연남로 35, 인천종합터미널 1층 대합실",032-426-3370,37.4425062298688,126.701518656221
트레이더스양산점,경상남도 양산시 평산로 16,번호없음,35.3822360798756,129.152744992682
함안휴게소부산방향점,"경상남도 함안군 군북면 현포로205(유현리993-6), 함안휴게소 부산방향 1층",055-582-2191,35.2934667541833,128.348064495941
서대문역점,"서울특별시 서대문구 통일로 139, 1층 102호(냉천동)",02-313-3796,37.5667760051892,126.965374009098
킨텍스점,경기도 고양시 일산서구 킨텍스로 217-60,031-995-8328,37.668933476214,126.745802827238
신대방삼거리점,"서울특별시 동작구 상도로 103, 1층(상도동)",02-3665-3995,37.5007046805293,126.931782120252
부산동래역점,"부산시 동래구 온천천로 165, 102동 1층 107호",번호없음,35.2049671082398,129.078985508071
덕유산휴게소 하남방향점,전북 무주군 안성면 공진리 471(통영대전고속도로),번호없음,35.8160357057106,127.646368337571
덕유산휴게소 통영방향점,전북 장수군 계북면 양악리 산4-7(통영대전고속도로),번호없음,35.8134629126018,127.643127873581
한국종합기술사옥점,"서울특별시 강동구 상일로6길 21, 한국종합기술사옥 1층(상일동)",번호없음,37.5497418999274,127.174355208901
천안신부점,충남 천안시 동남구 만남로 50 1층 103호,041-555-3234,36.8186771205502,127.157616646323
대치사거리점,서울시 강남구 대치동 961-1,번호없음,37.5031210885846,127.059373728185
압구정로데오점,"서울특별시 강남구 선릉로 153길 12, 103호",02-544-8850,37.5249617604329,127.038565318856
신논현점,서울시 강남구 강남대로 484 1층,02-544-7750,37.5056248652289,127.024373998758
평창자연휴게소인천방향점,강원 평창군 용평면 탑거리길 63 평창자연휴게소 인천방향,번호없음,37.6107858292566,128.463404625998
동두천지행역점,"경기도 동두천시 동두천로 119, 1층 108호 (지행동, 지행역프라자)",번호없음,37.8920674099318,127.054630551128
창원중동유니시티점,"경상남도 창원시 의창구 중동북로 23, 제이디윙스빌딩 1동 1층 108호 (중동)",번호없음,35.2581399667822,128.627158203479
함안휴게소 순천방향점,"경상남도 함안군 현포로205-1, 함안휴게소 순천방향 1층",053-719-2699,35.2934667541833,128.348064495941
화곡역점,서울특별시 강서구 화곡동 1066-10 105호,번호없음,37.5411474521686,126.83764744925
김포고촌점,"경기도 김포시 고촌읍 태리로 285, 109호",031-992-8000,37.5932156257793,126.763900138871
동작구청점,"서울특별시 동작구 장승배기로 70, 특별임대상가내 1층 5,6호",02-822-3370,37.5042374347633,126.940269700861
부산전포역점,"부산광역시 부산진구 전포대로200번길 13, 1층 (전포동)",번호없음,35.1546270038804,129.066380843455
송파방이점,서울특별시 송파구 오금로11길 6,02-420-3370,37.5142331890942,127.107952307168
숭실대점,동작구 사당로 12 1층,070-7525-5889,37.4952750566212,126.95565390864
성수점,"서울특별시 성동구 아차산로 132, 1층 102호(성수동 2가)",02-462-3371,37.5435689243108,127.058400857463
대전상대본점,"대전시 유성구 상대복용로29번길 9-5, 2층 201호(상대동)",042-710-6188,36.337670172066,127.332957775059
트레이더스구월점,"인천시 남동구 매소홀로 759, 트레이더스 구월점 1층",032-472-5864,37.4396232177682,126.707884341114
서울여대점,"서울특별시 노원구 화랑로 621, 학생누리관동 1층 101호 ( 공릉동, 서울여자대학교)",02-971-3370,37.6273815936787,127.091621159803
화양사거리점,"서울특별시 광진구 동일로 178, 1층 110호 ( 화양동, 광진캠퍼스시티)",02-469-0827,37.5478142685395,127.067810065046
완주삼봉지구점,전북특별자치도 완주군 삼례읍 삼봉3로 16,070-4006-0901,35.9208818038389,127.1219052736
신림점,"서울특별시 관악구 신림로 323, 1층 106호",-,37.4832285155747,126.929548484921
원그로브점,"서울특별시 강서구 공항대로 165, B동 1층 E120 (마곡동)",02-6953-5380,37.5608751008131,126.824695969186
신풍역점,서울 영등포구 신풍로 28,070-4006-0901,37.4998139228913,126.90960294998
롯데몰광명점,"경기 광명시 일직로 17, 롯데몰광명 3층 델리테라스",02-6226-2378,37.4243110028905,126.882779952497
단대오거리역점,"경기도 성남시 중원구 산성대로372번길 9, 1층(금광동,원광빌딩)",-,37.4451605417662,127.158109436178
고양원당점,경기 고양시 덕양구 호국로 826 1층,-,37.6589703838903,126.839251196358
예술의전당점,"서울시 서초구 남부순환로 2406, 예술의전당 비타민스테이션 1층(서초동)",02-581- 3346,37.4802401962069,127.014215239186
광주용봉지구점,"광주광역시 북구 용봉택지로 39, 103호(용봉동, G플레이스 용봉)",062-522-0922,35.1789241922183,126.890896630043
영산고속도로휴게소점,경남 창녕군 영산면 장척호수길 56-110,-,35.4286587768169,128.495680970332
경주월드점,"경상북도 경주시 보문로 544, B-111동 (천군동, 경주월드)",-,35.8361000891083,129.279149011801
송도오네스타점,"인천 연수구 송도국제대로 157, 지상1층 A-114호(송도동, 오네스타)",032-821-7779,37.3809410558608,126.656664161119
서충주기업신도시점,"충주시 중앙탑면 원앙9길 15, A-2동 118호",043-848-2326,37.0157412993212,127.825918770774
수원아주대점,경기도 수원시 팔달구 아주로41,031-211-8898,37.2785064452542,127.04352706338
롯데부산광복점,"부산광역시 중구 중앙대로 2, 지하1층(동광동1가, 롯데백화점광복점)",-,35.0979848964696,129.036632251021
부산교대정문점,"부산광역시 연제구 교대로8, 1층",-,35.1956043035801,129.079164219788
구의이스트폴점,"서울특별시 광진구 아차산로 420, 1층 판매시설 7호 (자양동, 롯데캐슬이스트폴)(자양동)",02-455-0143,37.5363594752912,127.088777809176
선릉중앙점,"서울특별시 강남구 선릉로86길 7, 삼정빌딩 1층",02-555-3011,37.5032959457801,127.05031261589
거제아주점,"경상남도 거제시 아주1로 38, 1층 (아주동)",-,34.8665544651562,128.688623157759
부산온천천점,부산광역시 연제구 세병로 84,-,35.1957563678299,129.082747391408
교대지파이브점,"서울특별시 서초구 서초중앙로24길 27, 104호 (서초동,G5센트럴프라자)",02-6677-0707,37.4954109950647,127.016402306519
마들역점,"서울특별시 노원구 동일로 1541, 1층 107호 ( 상계동 , 11단지 종합상가 )",070-4006-3823,37.6656742727167,127.05705028385
평택성모병원점,"경기도 평택시 평택로 284, 1층(세교동)",031-657-4951,37.0084078202862,127.074338432243
롯데동탄점,"경기 화성시 동탄역로 160, 롯데백화점 동탄점 B1",031-8036-3550,37.200666359626,127.098203113972
강동아이파크더리버점,"서울특별시 강동구 고덕비즈밸리로 51, 지1층 B108-2호(고덕동)",-,37.5666602103625,127.157332910007
목동행복한점,"서울특별시 양천구 목동동로 309, 1층(목동, 행복한 백화점(㈜중소기업유통센터)",-,37.5292109947037,126.875984665042
롯데시네마대전센트럴점,"대전광역시 서구 대덕대로 216, 6층",-,36.3519514997921,127.379506465353
거제수월점,"경남 거제시 제산로 2-2, 1층",055-950-3155,34.8911271891223,128.636236653037
대전한화생명볼파크점,"대전광역시 중구 대종로 373, 베이스볼드림파크1층 메인게이트옆호(부사동)",-,36.3173370007388,127.428013823451
광명역점,"경기도 광명시 신기로 7, 1층 104호(일직동, 골드스타빌딩)",02-897-5989,37.4206112291251,126.882491771593
두산연강빌딩점,"서울특별시 종로구 종로33길 15, 1층 일부호(연지동, 두산아트센터)",02-2088-2201,37.5718123278145,127.00100010537
트레이더스 마곡점,"서울특별시 강서구 공항대로 165, 지하2층 일부호(마곡동)",-,37.5608751008131,126.824695969186
세종아름점,"세종특별자치시 보듬3로 101, 주건축물 1동 102호(아름동)",044-862-4739,36.5114019488938,127.248409972874
부산서면동천로점,"부산광역시 부산진구 동천로 95, 1층 일부(부전동)",-,35.1573320961613,129.062141513378
인스파이어리조트점,인천시 중구 공항문화로 127 인스파이어리조트 아레나홀 R층,032-215-0024,37.4655300794822,126.389117686755
충주호암점,충청북도 충주시 호암토성2로 3 1층 102호,043-910-0909,36.9557981016358,127.934493543869
둔촌동역점,"서울특별시 강동구 양재대로 1371, 1층 6호(성내동, 둔촌빌딩)",02-478-3360,37.5287025352002,127.136066310873
파주운정로데오점,"경기도 파주시 경의로 1224, 1층 133호 (와동동, 운정역HB하우스토리시티)",031-8035-6698,37.7264459709275,126.761415400882
(주)나라교역카페공칠삼이간절곶점,울산광역시 울주군 서생면 간절곶1길 25-6,052-238-5500,35.3594554657021,129.359144615182
홈플러스북수원점,"경기도 수원시 장안구 경수대로 930, 1층 일부호(조원동, 홈플러스 북수원점)",-,37.302770156247,127.008801286183
롯데마트구미점,"경상북도 구미시 구미대로22길 11, 2층(신평동, 롯데마트구미점)",054-465-3370,36.1137881261944,128.365409037404
중랑구청점,"서울특별시 중랑구 봉화산로 194, 1층 111, 112호(신내동, 신아타운)",02-3421-3370,37.6064526315197,127.094707041869
시흥하늘휴게소점,경기도 시흥시 수도권제1순환고속도로 105 2층,-,37.3839075388746,126.855573348211
평택호휴게소점,"경기도 평택시 현덕면 평택호3길 63, 1동 1층(평택호 휴게소 주건축물)",-,36.924552964624,126.917815072481
인천국제공항 T2 2호점,"인천시 중구 제2터미널대로 446, 제2여객터미널 L/S 3층",032-743-7669,37.4692488244219,126.43320918812
광주충장점,광주광역시 동구 중앙로162-1,062-665-2500,35.1483683004667,126.913677318873
부산공항덕두점,"부산광역시 강서구 공항로811번가길 7, 1층(대저2동)",-,35.1795670193268,128.957046644312
서귀포신시가지점,"제주특별자치도 서귀포시 신서로 52번길 24, 1층(강정동)",064-739-7010,33.2554566160119,126.506922571089
인천국제공항 T2 1호점,"인천시 중구 제2터미널대로 446, 제2여객터미널 A/S 3층",032-743-7668,37.4692488244219,126.43320918812
해운대LCT점,"부산광역시 해운대구 달맞이길 30, 제포디움동 1층 1042호(중동, 엘시티)",051-731-3371,35.1613327099223,129.168013841974
신촌점,"서울특별시 서대문구 신촌로 109, 1층 101호(창천동, 신촌르메이에르타운5)",010-5171-0775,37.5558311934312,126.937798700666
퍼블릭가산점,"서울특별시 금천구 디지털로 178, 현대지식사업센터 가산퍼블릭 B동 1층 M-129호(가산동)",02-2114-8334,37.4764394057239,126.887331650246
부산종합버스터미널점,"부산광역시 금정구 중앙대로 2238, 2층 1호(노포동, 부산종합버스터미널)",-,35.2846866758906,129.095480074212
천호역점,"서울특별시 강동구 천호대로 1024, 1층 130호 (성내동, 힐스테이트 천호역 젠트리스)",-,37.5373738689796,127.12572887033
이마트문현점,"부산광역시 남구 전포대로91번길 47(문현동, 이마트)",-,35.1442717662962,129.064234227458
종로구청점,"서울특별시 종로구 삼봉로 81, 1층 107호(수송동, 두산위브파빌리온)",02-730-3371,37.5725639351805,126.981506298154
분당정자학원가점,"경기도 성남시 분당구 정자일로 240, 104호(정자동, 월드프라자)",031-602-9367,37.3715568988665,127.106287660481
세종해밀산울점,"세종 산울2로 10, 근생A동 2층 216,217호",044-862-7738,36.5296440869953,127.262334403956
명지대점,"서울특별시 서대문구 거북골로 33, 1층 101~103호(남가좌동)",02-322-1222,37.5794643946748,126.92408384416
여주프리미엄빌리지점,"경기도 여주시 명품1로 22-1, 2동 4-4 103호(상거동, 여주프리미엄빌리지)",-,37.2432357864733,127.615110513843
이천갈산점,"경기도 이천시 안흥로 72, 1동 1층 102-6호(갈산동,스마트빌딩)",031-635-7731,37.2844427339464,127.455044295739
구파발역점,"서울특별시 은평구 진관2로 15-8, 1층 105호",02-352-3330,37.6353936531351,126.919559891188
공덕점,"서울특별시 마포구 백범로31길 7, 1층 제비113,114호(공덕동, 공덕 SK리더스뷰)",02-795-6106,37.5452545904697,126.948750766953
대치학원가점,"서울특별시 강남구 삼성로 307, 1층(대치동)",02-564-0807,37.4994121734028,127.06029257756
울산병영점,울산광역시 중구 번영로 568 1층(남외동),-,35.5682489885226,129.344107078955
발산역점,"서울특별시 강서구 강서로 385, 1층 114호(마곡동, 우성에스비타워)",02-3665-9976,37.5600926354663,126.838304106686
대치역점,"서울특별시 강남구 삼성로 155, 1층 120호(대치동, 대치퍼스트빌딩)",02-501-0807,37.4938813994708,127.062951852624
수유사거리점,서울특별시 강북구 덕릉로 82. 제네스타워 107호 (수유동),02-981-3900,37.6344266074982,127.022843274109
영종운서중앙점,"인천광역시 중구 흰바위로 236, 1층 106,107호(운남동)",032-752-0705,37.4797415980721,126.502146191327
스타필드시티위례점,"경기 하남시 학암동 위례대로 200 스타필드시티위례점 2층, 2201호",031-8097-1299,37.4801356884837,127.148404124838
인천검단법원점,"인천광역시 서구 이음3로 145, 103호(당하동, JK타워)",032-564-0088,37.5888350856487,126.708063727904
오류동역점,"서울특별시 구로구 경인로 20길 9, 1층(오류동)",070-8633-0822,37.4954643260145,126.843960173202
롯데시네마동탄점,경기 화성시 동탄역로 160 (오산동) 롯데시네마 동탄(롯데백화점 7F),1544-8855,37.200666359626,127.098203113972
고려대중앙광장점,"서울특별시 성북구 안암로 145, 중앙광장동 지하1층 109A호(안암동5가, 고려대학교 안암캠퍼스)",02-925-9556,37.5887034223667,127.031698331241
강남본점,서울시 강남구 테헤란로 115,02-558-3390,37.4990612091283,127.029905723263
삼성전자DSR타워점,"경기도 화성시 삼성전자로 1(반월동), DSR타워 B동 1층",031-205-7730,37.2234648640396,127.063384197856
파주동패점,"경기도 파주시 청석로 115, 1층 108호(동패동, 반석프라자)",031-948-3370,37.712691078582,126.720433135049
양주덕계점,"경기도 양주시 회천중앙로 240, 101호 (덕계동, 센트럴본타워)",070-4793-8770,37.8191173939616,127.053182498828
선릉역점,"서울시 강남구 테헤란로 411, 성담빌딩 1층",02-562-3370,37.5054936224827,127.050863180985
가락몰점,"서울특별시 송파구 양재대로 932, 비동 지하1층 4-1호(가락동, 농수산물시장)",02-408-1661,37.4945376921828,127.108713599026
롯데백화점센텀점,"부산광역시 해운대구 센텀남대로59, 지하2층(우동, 롯데백화점센텀시티점)",051-730-3900,35.1698533549006,129.131069686974
청도새마을휴게소하행점,경상북도 청도군 청도읍 하지길 59-49,미설치,35.5954655639225,128.766987314789
청도새마을휴게소상행점,경상북도 청도군 청도읍 하지길 59-50,미설치,35.5943786242393,128.769680406231
충남예산점,"충남 예산군 예산읍 역전로 139, 1층",041-332-0788,36.6917164822178,126.829903562057
서산호수공원점,"충남 서산시 호수공원5로 34 , 1층 101호",041-453-7336,36.7742361973073,126.449525904668
제주영어교육도시점,"제주특별자치도 서귀포시 대정읍 에듀시티로239번길 12, 1층",064-792-6377,33.2792710003083,126.275094001081
안산중앙점,"경기도 안산시 단원구 예술대학로 17, 108호(고잔동, 안산중앙노블레스)",010-5391-0349,37.3187208452493,126.836516628745
울산대점,"울산광역시 남구 대학로 96, 2층",052-224-8838,35.5434203591127,129.260273705497
이마트중동점,"경기도 부천시 원미구 석천로 188, 1층 일부호 (중동, ㈜신세계이마트중동점)",032-323-7749,37.5040650740343,126.763949320638
인천검암역로열파크씨티점,"인천광역시 서구 한들로 73, 상가 10동 1층 108호(백석동, 검암역로열파크씨티푸르지오2단지)",032-710-5652,37.5780524279041,126.669139597591
인천검단사거리점,인천광역시 서구 완정로178번길 1 101호,032-567-3350,37.6027394864422,126.656733078849
제주서귀포광장점,"제주특별자치도 서귀포시 일주동로 8662, 1층 (동홍동)",0000,33.2537580535074,126.562829126234
스타필드수원점,"경기도 수원시 장안구 수성로 175, (스타필드수원점) 1층 1268호",031-690-1182,37.2874453391147,126.991574559571
울산지웰시티점,"울산광역시 동구 서부로 51, B507호(서부동)",052-235-3371,35.5261687436131,129.428437275291
갤러리아센터시티점,"충남 천안시 서북구 공원로 227, B1층",-,36.800564020263,127.104726252319
건대스타시티점,"서울특별시 광진구 아차산로 272, 스타시티몰 시티존 지상1층 에프100호",02-455-5500,37.5385582736952,127.072996184863
제주탑동점,제주도 제주시 탑동로19,064-726-3370,33.5171290029649,126.522655919554
일산라페스타점,"경기도 고양시 일산동구 무궁화로 31-1, 103호(장항동, 텐폴드프라자)",031-922-0454,37.6627565458209,126.767415951057
충남금산점,"충남 금산군 금산읍 비단로315, 1층 102호",041-751-0475,36.1098735359296,127.488070653736
대전월평점,"대전시 서구 청사서로 34, 1층",042-484-1178,36.3608386200543,127.376912000787
대구담티역점,"대구광역시 수성구 교학로3, 3동 1층 2호(만촌동, 금탑아파트)",053-756-1212,35.8541997823867,128.653600037468
부산서면문화로점,"부산광역시 부산진구 가야대로 783, 1층(부전동)",070-4215-1130,35.1580642228878,129.057233641248
포천신읍점,경기도 포천시 포천로 1585번길 30-3(신읍동),031-533-9216,37.896861800198,127.201150185163
이마트양산점,"경상남도 양산시 양산역6길 12 ,푸드코트 내 1층(중부동,신세계이마트양산점)",055-372-0744,35.336823652002,129.026440158698
인천송도퍼스트파크점,"인천광역시 연수구 컨벤시아대로230번길 42, 1층 107호(송도동, 송도아라플라자)",032-833-9007,37.3880855965896,126.634914668041
홍제역점,"서울특별시 서대문구 세무서길 11, 1층 1호(홍제동, 서대문세무서)",02-379-8430,37.5886875959779,126.945256697643
양주고읍점,"경기도 양주시 고읍남로 18, 103호(광사동, 가보프라자)",031-856-7300,37.7949673706312,127.079431794293
도곡점,"서울특별시 강남구 언주로 30길 21, A동 104-1호 (도곡동, 아카데미스위트)",02-575-2747,37.4888657676631,127.052014632509
중곡역점,"서울특별시 광진구 능동로 413-1, 1층(중곡동)",02-465-3370,37.5660595057045,127.084126211511
부산장림점,"부산광역시 사하구 장림번영로 97, 1층 103호",051-710-1001,35.0810138756684,128.975520472772
화성봉담2지구점,"경기도 화성시 봉담읍 상리중심상가길 28-8, 1층 113호",031-292-0811,37.2262346445035,126.946184820377
세종도담점,세종특별자치시 한누리대로 589 해피라움7 104호,041-3591-9121,36.5159296361556,127.258452911128
나주혁신점,"전남 나주시 그린로195 101호, 105호 일부",061-335-1009,35.0097239572515,126.787762016285
인천정각사거리점,"인천광역시 남동구 구월로 223, 1층 103호(구월동, 위너스프라자)",032-469-3370,37.456507605553,126.715634950689
울산매곡점,"울산광역시 북구 매곡본길 2, 1층(매곡동)",052-282-7001,35.6415447405432,129.356232788032
롯데시네마월드타워점,"서울특별시 송파구 올림픽로 300. 7층 (신천동, 엔터동 롯데시네마)",미정,37.5137129859207,127.104301829165
김포구래중앙점,"경기도 김포시 김포한강8로 386, 112호, 114호 일부(구래동, 김포센트럴프라자2)",031-981-3357,37.643487398868,126.626184009334
강동구청점,"서울특별시 강동구 성내로 20, 1층 104호(성내동)",02-474-2043,37.5297090648267,127.122637956415
의정부고산점,"경기도 의정부시 서광로 135, 113호(산곡동, 센터프라자)",031-847-7730,37.7290110537457,127.110941113727
김포운양역점,"경기도 김포시 김포한강11로 288-24, 1동 1층 112호(운양동)",031-998-5864,37.6542636144176,126.683344099338
신세계아울렛부산점,부산광역시 기장군 장안읍 정관로 1133 신세계아울렛부산점 2층,051-940-1279,35.3249413082094,129.236072800234
철산역점,"경기도 광명시 철산로 24, 104호(철산동, 다인빌딩)",02-2615-3370,37.4759973926928,126.869002517676
삼성바이오로직스점,"인천광역시 연수구 송도바이오대로 300, 바이오플라자2 3층",032-811-3370,37.3679568412758,126.660360107589
송파역점,"서울특별시 송파구 송파대로 345, 근린생활시설 1A동 1038호",02-6956-5388,37.4976145695004,127.102531804188
탄천휴게소논산방향점,충남 공주시 탄천면 논산천안고속도로 27,-,36.3191630806256,127.070040988938
롯데마트당진점,"충남 당진시 정안로 20, 롯데마트당진점 1층",041-3591-9121,36.9057741781123,126.646259954098
부산대정문점,"부산광역시 금정구 부산대학로 60, 1층 일부",051-710-0615,35.2316615113901,129.084888984375
분당구미점,"경기도 성남시 분당구 미금로 39, 107호(구미동, 로얄프라자)",-,37.3368568254014,127.116020898498
인천연수점,"인천광역시 연수구 청능대로93, 106호, 106-1호 일부호(청학동, 이리옴프라자)",032-822-0719,37.4143192956494,126.675666633078
파주운정점,"경기도 파주시 미래로 375, 101호(동패동, 삼성메디컬프라자)",031-944-3370,37.7114039101352,126.745851749055
롯데마트서산점,"충남 서산시 충의로 27, 롯데마트서산점 B1층",041-665-3357,36.7737230623394,126.438296536035
염창역점,"서울특별시 강서구 공항대로 635, 1층(염창동)",02-2659-6336,37.5472626732763,126.875270707574
인천검단신도시점,"인천광역시 서구 이음대로 388, 1층 109호(원당동, ABM타워)",032-266-3350,37.5931091949156,126.712688895957
더타운몰킨텍스점,"경기도 고양시 일산서구 킨텍스로 171, 일산 킨텍스 복합개발 2층 일부호(대화동)",-,37.6615831401235,126.744065435785
반포삼호가든점,"서울시 서초구 서초중앙로 239, 1층 공차",02-594-3370,37.503204616056,127.010876972267
서울대점,"서울시 관악구 관악로 1, 63동 학생회관 1층 공차",02-874-3370,37.4662872666604,126.94815644252
원광대병원점,전북 익산시 무왕로895 원광대병원 외래 3관 2층,063-855-7111,35.9654888995513,126.962940572117
전농동사거리점,"서울특별시 동대문구 사가정로 111-2, 1층",02-2244-3370,37.5775310539915,127.057197607054
이마트울산점,"울산광역시 남구 남중로 48,1층 (삼산동, 울산점 EMART )",미설치,35.5380173079734,129.348399921457
롯데마트월드컵점,광주 서구 금화로240 롯데마트 월드컵경기장 1층,062-655-1011,35.1336460778946,126.874829928048
시흥장현점,"경기도 시흥시 황고개로 536, 1층 101호~102호(장곡동)",031-312-0332,37.3784920903055,126.789250551253
김해공항국내선점,부산광역시 강서구 공항진입로 108 국내선터미널 2층(대저2동),051-831-7735,35.173068,128.9478529
분당현대R&D센터점,"경기도 성남시 분당구 분당수서로 477, 4층 일부호(정자동)",-,37.3769302297953,127.106110756431
부산해운대구청점,부산광역시 해운대구 중동1로 26 1층,051-731-1215,35.1630039081162,129.162094895279
당산역점,"서울특별시 영등포구 당산로 214, 상가1동 1층 108-2호(당산동5가, 당산 삼성 래미안)",02-2671-0782,37.5329312320335,126.902834034778
부산마린시티점,부산광역시 해운대구 우동 1407번지 104동 144호,070 7543 0717,35.1566280868178,129.145072021075
롯데월드점,"서울특별시 송파구 올림픽로 240, 롯데월드 지하1층 (로티로리광장)",-,37.5113096112036,127.098141751177
분당미금역점,"경기도 성남시 분당구 돌마로 68, 119호,120호(구미동, 분당프라자)",031-717-7750,37.3496466239203,127.109548208072
수원아이파크시티점,"경기 수원시 권선구 동수원로177번길 40, 수원아이파크시티 8단지 119,120호",031-234-9224,37.2466841722769,127.03014236609
부산센텀점,부산광역시 해운대구 센텀중앙로 48 103호,051-747-0113,35.1730246551157,129.129851618128
대구신암점,"대구광역시 동구 신암로 104, 1층 (신암동)",053-955-7001,35.8798696795794,128.611065762555
광주운남점,광주광역시 광산구 하남대로154 1층 101호,062-962-3303,35.1797124963485,126.810396379952
이마트분당점,"경기도 성남시 분당구 불정로 134, 1층 일부(정자동,이마트)",-,37.3587972091658,127.119757717726
롯데마트평택점,"경기도 평택시 평택5로 30, 1층(합정동, 롯데마트 평택점)",031-652-3350,36.9883655372149,127.111760767543
부산문현점,"부산광역시 남구 수영로 11, 1층(문현동)",-,35.1373098046616,129.069200598884
문래점,"서울특별시 영등포구 선유로 76, 동국메뜨리앙 1층 107호(문래동3가)",02-2631-0404,37.5206488765446,126.889905898442
대전유성온천점,대전광역시 유성구 온천로 45 109동 110호,042-824-0807,36.3558166482127,127.34301917889
이마트포항점,"경상북도 포항시 남구 냉천로 10, 1층",미설치,35.992475281987,129.397629953503
천안백석점,"충남 천안시 서북구 한들3로 83,1층 107호",041-352-2223,36.8310993563161,127.123279045773
용인둔전점,"경기도 용인시 처인구 포곡읍 포곡로 127, 1층 101호",031-335-3346,37.2706662625696,127.219062520334
전북삼례점,전라북도 완주군 삼례읍 삼봉로 23,063-291-0755,35.9119666778289,127.074530101319
메가마트양산덕계점,"경상남도 양산시 덕계로 60-1, 메가마트 덕계점 B동 1층 (덕계동)",055-381-9906,35.3730485638303,129.150499618102
경산중산신도시점,경북 경산시 펜타힐즈2로 57 SM타워 106호,053-817-2520,35.8287305776795,128.719770659866
양산범어점,"경상남도 양산시 물금읍 범어로 72, 102호",055-372 - 3350,35.3281165715685,129.01504859985
신방화역점,"서울특별시 강서구 마곡중앙5로 81, 1층 101호(마곡동, 에스비타운)",02-2663-5575,37.5671170824829,126.818597219555
학동전남대병원점,"광주광역시 동구 제봉로 29, 1층(학동)",062-972-1172,35.1413246023209,126.921068085674
일산벨라시타점,"경기도 고양시 일산동구 강송로33, 지하 1층 일부호(백석동, 일산요진와이시티)",-,37.6440712087641,126.792801047835
종암점,"서울특별시 성북구 종암로 120, 1층 101호",02-941-0388,37.6010208311524,127.034438925479
세종종촌점,"세종특별자치시 달빛로 59, 108호(종촌동, 호만빌딩)",044-866-9950,36.5042415377793,127.24975605195
광명하안점,"경기도 광명시 범안로 1043, 1층 101호(하안동, 원촌빌딩)",02-899-8052,37.4623271177948,126.878653259635
광주신현점,"경기도 광주시 신현로 82, 1층 (신현동)",031-717-6052,37.3600632958842,127.155764137026
아현역점,서울특별시 서대문구 신촌로35길 10,02-365-3370,37.558621696785,126.955860405605
세종고운점,세종특별자치시 세종로 1229 스타플레이스 1층 106호 (고운동 2092),044-999-4216,36.512441205955,127.241051806672
부산개금점,"부산광역시 부산진구 개금온정로6, 102호 (개금동, 개금블루스카이)",051-923-2754,35.1536801209983,129.025557941927
고척아이파크몰점,"서울특별시 구로구 경인로43길 49, 1층  D-102호(고척동, 고척아이파크)",02-2066-5627,37.4991318775075,126.857590075507
광주염주점,"광주광역시 서구 월드컵4강로 60, 1층",062-383-1002,35.1423781143289,126.875092102544
화성송산그린시티점,"경기도 화성시 수노을중앙로 136, 110호(새솔동, 송산메가타워빌딩)",031-657-4951,37.2847249366123,126.818214100566
롯데마트부평점,"인천광역시 부평구 마장로 296, 1층 (산곡동, 롯데마트부평점)",070-8881-1311,37.5050118176597,126.704074784237
홈플러스센텀시티점,부산광역시 해운대구 센텀동로6 홈플러스센텀시티점 1층,미설치,35.1709132429029,129.133691863258
롯데아울렛이시아폴리스점,"대구광역시 동구 팔공로49길 16, 1층 (봉무동, 이시아폴리스 라이프스타일 센터)",미설치,35.9215483327821,128.637357106242
방학역점,"서울특별시 도봉구 도봉로150길 43, 1층, 108, 109호",02-956-1231,37.6662934478885,127.045847069683
이마트연수점,"인천광역시 연수구 경원대로 184, 2층(동춘동, 이마트연수점)",031-652-3350,37.4042185993456,126.681119564924
부산민락수변점,"부산광역시 수영구 민락수변로 49, 광안KCC스위첸 하버뷰 1층 113, 114호 (민락동)",051-,35.1536742572992,129.126146583215
시흥능곡점,"경기도 시흥시 승지로 58, 102호(능곡동, 태영플라자)",031-317-6391,37.3690240358917,126.810662838059
경북울진점,"경상북도 울진군 울진읍 연호로 8-1, 1층",054-783-9998,36.9934536511759,129.402104086802
대구화원점,"대구광역시 달성군 화원읍 성화로2, 1층",053-637-7733,35.8011148348333,128.492556090856
대구국제공항점,"대구광역시 동구 공항로 221, 2층(지저동, 대구국제공항)",053-983-7710,35.8991086837334,128.639261532187
충주용산점,"충청북도 충주시 남산로 90, 1층",043-852-9196,36.9616073106927,127.942164829545
용인언남점,"경기도 용인시 기흥구 구성로 103, 108호 (언남동, 멀티프라자)",031-287-3350,37.2938955760042,127.120751436258
이마트광교점,"경기도 수원시 영통구 광교로 191, 1층",031-217-7730,37.2963500230486,127.046954360227
이마트용산점,"서울시 용산구 한강대로23길 55, 이마트 지하2층 (한강로3가, 용산역)",02-2012-1209,37.5297718014452,126.964741503485
부산서면점,부산광역시 부산진구 중앙대로692번길 22,051-803-1130,35.1543416047391,129.060430451165
수원태장점,"경기도 수원시 영통구 영통로 107, 103호",031-202-7789,37.2376190953079,127.057659346251
평택청북점,경기 평택시 청북읍 안청로 336,031-683-7758,37.0179768202825,126.915783129967
롯데시네마평촌점,"경기도 안양시 동안구 시민대로 180, G.SQURE, 롯데백화점 평촌점 8층 (호계동)",031-8086-9956,37.390002179095,126.950178643649
부산거제리점,"부산광역시 연제구 아시아드대로88, 1층 (거제동)",051-714-4024,35.1924930475509,129.067516763524
홈플러스강서점,"서울특별시 강서구 화곡로 398, 1층 X11,YE호 (등촌동, 홈플러스강서점앤본사사옥)",02-3661-3332,37.5584699599397,126.854819012937
당진기지시점,충청남도 당진시 송악읍 기지시리 153-17 (반촌로 96),041-352-2223,36.9040287673743,126.694318570448
광주송정점,"광주광역시 광산구 상무대로 210 , 1층 (송정동)",062-945-5250,35.1379378047244,126.792155307702
고양지축점,"경기도 고양시 덕양구 지축1로 73, 1층 107호 (지축동)",02-381-0782,37.6490882174555,126.914763785458
영등포역점,"서울 영등포구 영중로 10 1층, 2층",02-2676-7735,37.5173030113292,126.906427739648
충북금왕점,충북 음성군 금왕읍 응천서길45번길 2,043-877-1218,36.9927188110883,127.594466650868
남양주평내마을점,"경기도 남양주시 평내로29번길 41, 메인프라자 101호(평내동)",031-559-8810,37.6454164634755,127.234988219379
양산서창점,"경상남도 양산시 삼호1길 46, 1층(삼호동)",055-365-1142,35.4141660939561,129.168008815047
광주무등산자이점,"광주광역시 북구 서양로 155, 상가4동 1층 2,3호",062-523-4955,35.1678354326818,126.91758698693
울산송정점,"울산광역시 북구 화산로 109, 어썸플레이스 1동 지상1층 105호(송정동)",052,35.6017932937173,129.365280483572
여수웅천점,"전라남도 여수시 예울마루로 37-53, 상가동 1층 109호",061-684-0789,34.7462620195887,127.670873377288
포천송우리점,경기도 포천시 소흘읍 송우로 79 1층 105호,031-542-4802,37.829926099632,127.140264876065
길동역점,"서울시 강동구 양재대로 1465, 1층 106호(길동,마루홈타운)",02-476-5271,37.5368399179472,127.139314330701
청주개신점,"충북 청주시 서원구 모충로 11, 1층",043-277-0707,36.6251437186249,127.465264107054
청주사천점,"충북 청주시 청원구 율봉로 142, 1층 104호(율량동, 아름빌딩)",043-211-9546,36.6680179253123,127.484760967741
고양향동점,경기 고양시 덕양구 꽃마을로 4 1층 111호,070-7537-1963,37.5989399402577,126.892204900814
AK금정점,"경기도 군포시 엘에스로 143, 2층 2010호 일부(금정동, 힐스테이트 금정역)",031-429-0626,37.3728500250826,126.944923276711
부산역광장점,부산광역시 동구 중앙대로 197,051-441-1003,35.1151169220309,129.039214831857
용인흥덕점,"경기도 용인시 기흥구 흥덕중앙로 41, 1층 111호 (영덕동, 흥덕웰스프라자)",031-548-1975,37.2765080950565,127.071564664297
목포대점,"전남 무안군 청계면 승달산길 24, 상가동 1층 101호",061-452-0705,34.909302210488,126.432333901624
기흥역점,"경기도 용인시 기흥구 기흥역로 63(구갈동, 힐스테이트 기흥 301동 107호)",031-285-3370,37.274842769629,127.118778508807
광양읍점,전남 광양시 광양읍 희양현로 53 1층,061-761-9791,34.9748955822266,127.588622457197
부천신중동점,"경기 부천시 길주로 270, 상가동 1층 105호(중동, 중동대우마이빌 Ⅱ)",032-213-0117,37.5030218559435,126.772051148749
트레이더스동탄점,"경기도 화성시 동탄대로 451, 이마트트레이더스 1층",031-375-7740,37.1934194119825,127.097068997258
원주문막점,"강원도 원주시 문막읍 건등로 47, 1층",033-734-6479,37.3142795021966,127.820623247947
여주중앙점,경기 여주시 세종로 22 1층,031-886-0742,37.2959249774988,127.636296065638
구미산동점,"경상북도 구미시 산동읍 신당2로 23, 1층 101호 (골든프라자)",054-715-3050,36.1559127336198,128.432536812537
먹골역점,"서울시 중랑구 동일로 932, 127호",070-8691-4525,37.6138348860458,127.077545015528
부평문화의거리점,"인천광역시 부평구 부평문화로 72-2, 1층 (부평동)",032-507-8889,37.4939802220457,126.724303918698
이마트계양점,"인천 계양구 봉오대로 785, 이마트계양점 1층",032-555-5626,37.5310380372084,126.736896747731
마포구청역점,"서울특별시 마포구 월드컵로 148, 1층(성산동)",070-8128-1166,37.56118009538,126.905766916667
부산센텀시티점,"부산광역시 해운대구 센텀2로20, 1층 104-1호 (우동, 센텀타워메디컬)",070-8648-1881,,
수원화서사거리점,"경기도 수원시 팔달구 동말로 81, 1층",031-256-7730,37.2789609613688,127.003137719175
대구운암역점,"대구광역시 북구 구암로 140, 1층 (구암동)",053-241-0707,35.9315757286444,128.556026228833
롯데시네마노원점,"서울특별시 노원구 동일로 1414, 롯데백화점 10층(상계동)",02,37.6552787315469,127.061391730931
울산옥동점,"울산광역시 남구 문수로 323, 1층",052-227-3350,35.5355784070858,129.288919773702
롯데마트계양점,"인천광역시 계양구 장제로 822, 2층 (계산동 롯데마트 계양점)",032-555-2627,37.5408492649713,126.736003459808
화성향남점,"경기도 화성시 향남읍 발안로 113, 1층 103호 아스날 메디컬프라자)",031-366-0509,37.1316995981522,126.923062236678
이마트익산점,"전라북도 익산시 평동로 705 , 1층 (동산동,E마트)",063-857-1008,35.9306498230572,126.957862789397
의정부망월사역점,"경기도 의정부시 평화로 185-1, 1층,2층 (호원동)",031-873-7666,37.7084590982437,127.047888931466
수원아주대병원점,"경기도 수원시 영통구 월드컵로 164, 지하1층 (원천동, 아주대학교병원 본관)",031-212-8211,37.2794385674316,127.047519373907
화성봉담점,"경기도 화성시 봉담읍 동화길 85, 1층 102호 (이원타워)",031-293-7731,37.2169931728115,126.958366387402
대구동아쇼핑점,"대구광역시 중구 달구벌대로 2085, 지하1층(덕산동, 동아쇼핑센터)",053-251-3920,35.8663335069594,128.591841588613
아산탕정역점,충남 아산시 탕정면 한들물빛5로 36 H동 101호,041-542-7730,36.785861605471,127.086857849079
마곡역점,"서울특별시 강서구 공항대로 168, 1층 107호(마곡동,747)",02-2662-3028,37.5592736391913,126.826136981493
이마트신제주점,"제주특별자치도 제주시 1100로 3348, 이마트신제주점 1층",064-743-0782,33.4849650136857,126.480431633456
의정부신곡점,경기 의정부시 발곡로 30(신곡동),031-824-0807,37.7309900129811,127.058236685309
광주태전점,"경기도 광주시 태봉로 145-5, 101호 (태전동)",031-798-0535,37.3811642309676,127.23116124549
대구서재점,"대구광역시 달성군 다사읍 서재로7길 6, 1층(101호)",053-585-1508,35.8683179512884,128.492615746216
정읍수성점,전라북도 정읍시 수성2로 37(수성동),063-535-2725,35.5815709558047,126.855519129317
의왕내손점,"경기도 의왕시 내손중앙로 4, 제지 1층 106호(내손동)",031-426-4147,37.3891056194264,126.976944770614
이마트통영점,경상남도 통영시 광도면 죽림4로 9 (이마트통영점) 1층,055-645-4578,34.8871333657334,128.417999522582
부산사상터미널점,"부산광역시 사상구 사상로 201, 1층 (서부시외버스터미널)",051-323-7730,35.1631461622437,128.98098582427
롯데마트울산점,"울산광역시 남구 삼산로 74, 1층(달동, 롯데마트울산점)",010-6374-3106,35.5339781077673,129.315908483993
성신여대점,"서울특별시 성북구 동소문로 22길 4, 1층(동선동1가)",02-6080-8069,37.5927965511507,127.017327344196
일원역점,"서울시 강남구 일원로 115, 1층 109호 (일원동, 삼성생명 일원역 빌딩)",024518430,37.4840224010593,127.084459720088
강원양구점,강원도 양구군 양구읍 양록길 102,033-481-3187,38.1063469169465,127.989655038687
평택동삭점,"경기도 평택시 동삭로 370-4, 1층",031-653-5002,37.0183727326185,127.095883637117
전주예수병원점,"전라북도 전주시 완산구 서원로 365, 2층(중화산동1가, 예수병원)",063-283-1008,35.8143301116274,127.132602652336
우장산역점,"서울특별시 강서구 강서로 259, 1층 104호",02-2065-0507,37.5488727643728,126.835997635372
이마트안성점,"경기도 안성시 중앙로 246, 1층",번호없음,37.0127213057474,127.255924129175
서초우성점,"서울특별시 서초구 사임당로 174, 105호",02-588-7377,37.4923165838485,127.028649677024
청주테크노폴리스점,"충북 청주시 흥덕구 송화로166번길  7-21, 1층 106호",043-268-7907,36.667198901145,127.453012846772
충북혁신도시음성점,"충북 음성군 맹동면 대하로 227, 가동 1층 112호",043-877-3370,36.9085205069921,127.541271838151
인천용현점,"인천광역시 미추홀구 매소홀로 75, 1층 (용현동)",070-4300-0403,37.4494990439934,126.634242118295
롯데월드어드벤처부산점,부산광역시 기장군 기장읍 동부산관광로 42,051-794-5930,35.1961130003038,129.213344761055
금천독산점,"서울특별시 금천구 시흥대로 399, 1층 106호 (독산동, 시티렉스)",02-805-0201,37.4693591753013,126.897001948519
명지국제신도시점,부산광역시 강서구 명지국제8로 245,051-271-3350,35.0984160588781,128.919834154903
홈플러스울산남구점,"울산광역시 남구 수암로 148, 1층",052-267-9799,35.5264303204015,129.322715097391
서울대입구역점,"서울특별시 관악구 관악로 164, 1층 114호",02-877-2650,37.4797395226756,126.952875619698
용인보라점,"경기도 용인시 기흥구 한보라1로 6, 102호(보라동, 제일프라자)",031-282-0703,37.2542697098541,127.109263755911
충북옥천점,"충청북도 옥천군 옥천읍 금구리 18-25, 1층",043-731-4413,36.3009425895854,127.569767812065
남양주다산역점,"경기도 남양주시 다산중앙로123번길 22-80, 1층 116호 (다산동, 신해메디컬타워)",031-557-7750,37.6248062439114,127.150726535933
길음뉴타운점,"서울시 성북구 길음로 33, 상가B동 7호",02-909-9889,37.6050832927232,127.022078590713
오산역점,"경기도 오산시 오산로212번길 8, 1층",031-373-9969,37.1455477416389,127.069333859962
낙성대역점,"서울특별시 관악구 남부순환로 1950, 1층",02-877-8030,37.476061704833,126.96542099245
인천가정점,"인천광역시 서구 봉오재3로 101, 1층 일부호",070-8691-0608,37.5276054914663,126.670717845101
대구영대병원역점,"대구광역시 남구 중앙대로 155, 1층(대명동)",053-656-7778,35.8472022901599,128.590208035917
부산시청점,"연산동 1366-1(부산광역시 연제구 시청로 12), 203동 108호",051-866-3350,35.1811363961421,129.075906085222
청라호수공원점,인천 서구 청라루비로 93 루비타워 111호,032-563-8838,37.5334144574101,126.640105149886
인천산곡역점,"인천광역시 부평구 길주로 364번길 9, 1층 128호 (산곡동, 부평 IPARK)",032-503-7750,37.5081423388981,126.702886284041
고양행신점,경기도 고양시 덕양구 무원로 6번길 36 남정씨티프라자 6차 1층,031-979-5500,37.614046396156,126.833718262095
익산부송점,"전북 익산시 무왕로 1195, 1226호",063-833-1313,35.9599097693551,126.989015101641
홈플러스칠곡점,"대구광역시 북구 동암로 12길 8, 1층(동천동, 칠곡홈플러스)",0000,35.9449268172911,128.555859679587
개롱역점,"서울시 송파구 동남로 240-6,1층 101호",02-443-0679,37.4977336406425,127.133826860024
김해삼계점,"경남 김해시 삼계중앙로 31, 1층",055-312-6433,35.2607371634983,128.868309567667
금천시흥점,"서울특별시 금천구 시흥대로 193, 제1층 106호(시흥동 아람아이씨티타워)",02-896-3888,37.4509932654577,126.901277884409
대전신탄진점,"대전 대덕구 신탄진로 804-1 ,1층",042-934-0034,36.4492863198246,127.429452899235
동탄목동점,"경기도 화성시 동탄신리천로 411, 1층 116호",031-373-8928,37.1827010474692,127.12407640678
장안동사거리점,"서울시 동대문구 답십리로 289 장안동, 기륭빌딩) 1층",02-3394-6637,37.5725258603826,127.072438425548
수락산역점,서울 노원구 동일로243길 10 1층,02-933-0784,37.6785377776498,127.054687846563
의정부금오점,"경기도 의정부시 창사로 45, 지상1층 101호 ( 금오동, 플래티넘프라자 )",031-853-7786,,
천안아산삼성미즈병원점,"충남 아산시 배방읍 희망로 46번길 16, 1층",041-910-5555,36.788140831373,127.104614001461
당진읍내점,"충남 당진시 읍내동 224-4, 1층",041-353-2033,36.8945221544994,126.630511803077
부산동아대부민점,부산광역시 서구 구덕로 220,051-241-3370,35.1041713478887,129.020287668619
롯데아울렛의왕점,경기 의왕시 바라산로 1 롯데프리미엄아울렛 의왕 타임빌라스점 내부 1층,031-329-0624,37.3758168645238,127.010277326166
인천송도랜드마크점,"인천광역시 연수구 랜드마크로 68, 301동 1층",032-832-7710,37.4151172407027,126.618222141856
대전가수원점,"대전광역시 서구 도안동로 11번길 42 , 1층101,102호",042-545-2558,36.3058423764257,127.350882595458
울산대왕암공원점,울산광역시 동구 등대로 99,052-232-5700,35.4909051135789,129.43539839587
고양삼송점,경기도 고양시 덕양구 권율대로 890 1층,02-381-6800,37.6629781805504,126.889920327432
인천검암역점,"인천광역시 서구 검바위로 26, 지상1층 환승통로 5호 (검암동, 검암역 (공항철도))",032-710-7120,37.569030447138,126.673541984078
은평응암점,"서울시 은평구 은평로 108, 1층",02-355-5999,37.5997123185996,126.919882555261
서산터미널점,충남 서산시 안견로 184 4 1층,041-665-3370,36.7821365110332,126.459026669959
울산공업탑점,"울산광역시 남구 삼산로 20, 1층",052-700-3106,35.5326451402377,129.310190284518
광주오치점,"광주광역시 북구 설죽로 338, 1층(오치동)",062-265-5254,35.1896236031895,126.89938830744
평택이충점,"경기도 평택시 이충로 49-31 삼원프라자 101,102호",031-666-0408,37.060120072882,127.065495149884
동탄역점,"경기도 화성시 동탄대로 489, 1층 110호",031-375-0770,37.1974062084016,127.098270640431
인천영종운서점,"인천광역시 중구 신도시남로 137, 106호",032-752-3600,37.4936747767783,126.490071874241
부산남포점,"부산광역시 중구 비프광장로 27, 1~3층",051-256-8800,35.0989149758478,129.028304419453
하나로마트진접점,경기도 남양주시 해밀예당1로 28 하나로마트 1층,031-572-0401,37.7112459531024,127.186171542711
수원망포역점,"경기 수원시 영통구 영통동 976-11, 1층",031-202-1718,37.24628600447,127.059254136454
진해용원점,"경상남도 창원시 진해구 안골로 348, 1층 116호(용원동, 용원그랜드쇼핑)",055-546-0708,35.1020412132206,128.810296757787
안산선부점,"경기도 안산시 단원구 선부광장1로 69, 109",031-403-0714,37.3342618576136,126.813044281174
해남군청점,전라남도 해남군 해남읍 중앙1로 148-1,061-536-0007,34.5720552348017,126.599233158962
대구유천점,"대구광역시 달서구 월배로 51, 1층 113호(유천동, 진천역AK그랑폴리스)",053-642-0248,35.8138482693905,128.520303494991
천안두정역점,"충남 천안시 서북구 두정로 258 , 107호(두정동,휴먼빌딩)",041-563-6477,36.8329859146104,127.145740864676
구미구평점,"경상북도 구미시 인동36길 7, 1층상가(구평동)",054-475-7500,36.0937366485316,128.4327354974
강남구청역점,"서울특별시 강남구 학동로 342, 지상1층 103호(논현동, 에스케이 허브블루)",02-545-7730,37.5167560126387,127.040841265738
인천동암점,"열우물로 35-1, 1층",032-437-3350,37.4712789514206,126.701045135635
광주양산점,"광주광역시 북구 하서로 400, 1층 공차(아이맘아동병원)",062-571-1171,35.2105532794052,126.874644023112
까치산역점,"서울특별시 강서구 강서로 27, 1층 104호",02-2690-7730,37.5303651480517,126.847206208517
부산대점,"부산광역시 금정구 금정로68번길 22, 1층(장전동)",051-711-0615,35.2304467648619,129.087664096576
계룡엄사점,엄사면 엄사중앙로 99,042-551-5242,36.2894871762379,127.241823026098
수유역점,"서울시 강북구 도봉로87길 7, 1층",02-6080-7527,37.6381852510682,127.025046272482
인천원당점,"인천광역시 서구 원당대로 862,103, 104호(당하동)",032-568-1107,37.5932359,126.716051
대전복수점,"대전시 서구 복수동로 56, 1층 101호(복수동)",042-582-3370,36.2993383579077,127.378336068677
원주기업도시점,"강원도 원주시 지정면 신지정로 211, 119호",033-731-0709,37.3741912641636,127.872731344913
거제옥포점,"경상남도 거제시 옥포로 207, 1층",055-9503570,34.8931714673887,128.690778787944
한국외대점,"서울특별시 동대문구 휘경로5길 3, 1층",02-965-6588,37.5956408469455,127.062491915764
원주중앙점,"강원도 원주시 중앙동 60-12, 1층",033-743-3307,37.3498570147637,127.948846683087
목동파리공원점,"서울특별시 양천구 목동서로 65, 1층 105, 106, 107호",02-2655-0708,37.5361251512716,126.878730311055
울산태화강점,울산광역시 중구 태화강국가정원길 217(태화동),052-211-7730,35.550554966909,129.298364813343
용인백현마을점,"경기도 용인시 기흥구 동백7로 77, 101-3호",031-275-3350,37.2811109987793,127.160509776831
충북진천점,"충북 진천군 진천읍 중앙동로 69, 1층",043-537-3350,36.8561206360795,127.444844413532
화성시청점,"경기도 화성시 남양읍 시청로 123, 1층",031-355-1322,37.2001641091046,126.826822321527
동탄북광장점,경기도 화성시 동탄반석로 204 동탄제일프라자 1층 108호,0507-1467-7753,37.2066560348037,127.072824997881
동탄레이크꼬모점,"경기 화성시 동탄대로 181, 1층",070-4085-0407,37.1720680647347,127.104140595235
대구각산역점,대구광역시 동구 금강로15 1층,053-962-0403,35.8666648339243,128.724872616139
더현대서울점,"서울특별시 영등포구 여의도동 22, 더현대서울 지하1층",02-3277-0776,37.5260425418848,126.928299685623
대구평리점,대구광역시 서구 국채보상로 258(평리동),053-523-0407,35.8710165163255,128.559298705972
아산탕정점,"충남 아산시 탕정면 탕정면로 4 , 101호",041-532-0782,36.7985586339081,127.057495501886
병점진안점,"경기 화성시 효행로 1051, 1층",031-231-1077,37.214632843366,127.041975034192
수원대점,"경기도 화성시 봉담읍 와우안길 35, 1,2층",031-221-9408,37.2167306946565,126.975451449596
홍성로데오점,"충남 홍성군 홍성읍 조양로 146-1 , 1층",041-631-7730,36.6015045357025,126.665969076894
인천논현점,"인천광역시 남동구 논고개로123번길 14, 101호,102호(논현동)",032-424-0880,37.4022790211142,126.723085471063
용인한숲시티점,경기 용인시 처인구 남사읍 한숲로 84 근린생활시설동 101-102호,031-328-8523,37.1561090694356,127.173656345397
아산둔포점,"충청남도 아산시 둔포면 아산밸리중앙로 50, 1층",041-532-7750,36.9232108522856,127.052503164281
순천오천점,"전라남도 순천시 오천6길 10, 1층",061-741-2756,34.9344708825659,127.494463626048
진영휴게소부산방향점,"경상남도 김해시 진영읍 하계로 96번길 94-4, 진영(부산)휴게소내",055-334-8700,35.2775553386953,128.717461841396
전주에코시티점,"전주시 덕진구 세병로 21, 1층 B139호(송천동2가, 포레나 전주에코시티)",063-252-0456,35.8748856092856,127.128211314668
수지상현점,"경기도 용인시 수지구 만현로 120, SR프라자 1층 124호",031-897-3636,37.3060547136171,127.084716083959
암사역점,"서울시 강동구 올림픽로 777,1층 101호(암사동)",02-428-7750,37.5505145812121,127.127405764319
공주중동점,충남 공주시 웅진로 161-1(중동),041-858-0008,36.4548512515703,127.12434921622
현대아울렛대전점,대전광역시 유성구 용산동 579 현대프리미엄아울렛 대전점 3층,042-332-2826,36.4239102582203,127.398690240593
파주야당점,"경기도 파주시 경의로 1074, 115호",031-948-0454,37.7131570773604,126.759892016322
순천신대점,"전라남도 순천시 해룡면 신대로 118, 1층",061-723-2252,34.9340755839176,127.549325034952
대구이곡점,"대구광역시 달서구 계대동문로 123, 119동 1층 114호(이곡동, 성서우방타운)",053-588-0099,35.8557807187877,128.506452132308
대전은행중앙로점,"대전광역시 중구 중앙로 156번길 35,1층(은행동)",042-224-7878,36.3275872857767,127.427831766107
대전죽동점,"대전시 유성구 죽동로279번길 34, 지상1층(죽동)",042-825-1947,36.3702279192119,127.339720195511
수지롯데몰점,"경기도 용인시 수지구 성복2로 38, 롯데몰성복점 지하1층 공차",031-5174-4056,37.3127975899328,127.081666875865
안성공도점,"경기도 안성시 공도읍 공도로 93,103~104호",031-647-9508,36.9997302871739,127.170730868964
현대아울렛남양주점,"경기도 남양주시 다산순환로 50, 현대프리미엄아울렛 SPACE-A 178-1호 (다산동)",031-8078-2084,37.616257926116,127.152429100255
용인상현역점,"경기도 용인시 수지구 광교중앙로 308, 1층 106호",031-211-8850,37.2973566375727,127.069679238178
대전반석점,"대전광역시 유성구 반석동로51 ,1층104호(반석동 , 쎈타프라자2)",042-824-5980,36.3917660049544,127.311317317232
대구복현점,대구광역시 북구 동북로 301,053.954.3644,35.8924740490293,128.622925814661
삼척점,강원도 삼척시 척주로 16,033-575-0705,37.4438366649228,129.165458466651
녹번역점,서울시 은평구 은평로 226,02-3157-5866,37.600849454025,126.93271619248
오목교역점,"서울특별시 양천구 오목로 329, 지상 1,2층 (목동)",02-2645-9600,37.5249139528398,126.874124388629
부산동대신점,부산광역시 서구 구덕로 316,051-256-7776,35.1120475852039,129.016963264192
청주강서점,충북 청주시 흥덕구 강서로 118 104호,043-236-2223,36.6247490277064,127.429728786547
상일동역점,"서울시 강동구 고덕로 399,메가스퀘어동 1층 105호(고덕동,고덕센트럴푸르지오)",02-427-1878,37.5574405229047,127.16967893433
스타필드안성점,안성시 공도읍 서동대로 3930-39  스타필드안성 3층 3190호,031-8092-1834,36.9946334108693,127.147249620616
계양구청점,"인천광역시 계양구 계산새로 93, 밀레니엄프라자 1층 107호(용종동)",032-543-7531,37.5381621994534,126.738504994287
청주하복대점,"충북 청주시 흥덕구 진재로 49, 1층(복대동)",043-232-1227,36.635590757172,127.42926782847
대전도안점,"대전시 유성구 도안대로 512-11, 103호(봉명동)",042-823-1107,36.3459995192754,127.340873377501
울산언양점,울산광역시 울주군 언양읍 헌양길 157,052-254-3546,35.5666720823265,129.118025439704
광명사거리점,"경기도 광명시 광명로 895, 1층(광명동)",02-2613-1764,37.478927395785,126.853876830781
NC구로점,"서울특별시 구로구 구로중앙로 152, 지하1 층(구로동)",02-6923-2102,37.5011601442131,126.882773011925
중계은행사거리점,"서울시 노원구 한글비석로 245, 두타빌 B동 101,102호",02-939-0039,37.6492607976891,127.076361085876
나주중앙점,"전라남도 나주시 중앙로 42, 1층",061-331-9546,35.0330034087514,126.719564887805
동해천곡점,강원도 동해시 천곡동 10721 106호,‭033-533-0807 ‬,37.5246248,129.1168709
충남서천점,충남 서천군 서천읍 서천로142번길 4,041-453-8288,36.0804130399335,126.686871098006
김해인제대점,"경남 김해시 인제로 200번길 2, 2층",055-322-3350,35.2462578017027,128.904205680447
신세계아울렛시흥점,"경기도 시흥시 서해안로 699, 1층(정왕동)",031-8072-3111,37.3796755964231,126.736985310798
천안서북점,"충청남도 천안시 서북구 삼성대로 20,이마트 1층",041-523-0706,36.8385687913558,127.12233923432
수원광교점,"경기도 수원시 영통구 센트럴타운로94, 1층 102호(이의동, 앤에스코어빌딩)",031-212-7753,37.2919385294948,127.050911347085
왕십리센트라스점,"서울특별시 성동구 왕십리로 357, 1층",02-2293-6000,37.5638318602489,127.030214900211
가톨릭서울성모병원점,"서울특별시 서초구 반포대로 222, 지하1층",-,37.5023936158073,127.005860604348
아트몰링하단점,"부산광역시 사하구 낙동남로 1413, 7층",051-999-7590,35.106754958865,128.966474900321
광주하남점,"광주광역시 광산구 무진대로 279, 1층 110, 111호(우산동)",062-954-5500,35.1618870480423,126.810886782398
당진터미널점,"충청남도 당진시 밤절로 136, 1층",041-353-2400,36.9015027989862,126.645225106952
호매실금곡점,"경기도 수원시 권선구 금곡로 102번길 29, A동 1층 105호(금곡동, 센트럴프라자)",031-278-2542,37.272805813297,126.941752679321
석촌역점,"서울시 송파구 백제고분로 387,1층 101호,102호",02-6326-7030,37.5065099874616,127.10851448578
하남시청점,"경기도 하남시 대청로 11,1층(신장동,백천빌딩)",031-793-0611,37.5401236431518,127.213532164829
여의도전경련회관점,"서울특별시 영등포구 여의대로 24, B1층 B119호",02-786-0535,37.5221803249647,126.919916550827
여수여서점,"전라남도 여수시 여서동 1길 46-1, 1층",061-651-3200,34.7530105537057,127.70520005932
수원호매실점,"경기도 수원시 권선구 금곡로 213, 1층 107, 108호",031-296-3110,37.2734052383682,126.950372502188
가재울점,"서울 서대문구 가재울미래로2 별동상가동 1층 107-1,2호(남가좌동, DMC파크뷰자이)",02-303-4911,37.5744019902031,126.917907814167
진주과기대점,"동진로 25, 1층",055-753-5291,35.1791251671433,128.09375053254
분당아름마을점,"경기도 분당구 판교로 441, 남서울프라자 1층",031-708-7408,37.4057533888349,127.122777978076
안양역사점,"만안구 만안로 232(안양동, 안양역)",031-441-3098,37.4014349994721,126.92300270344
대전중촌점,"대전광역시 중구 목중로10번길 1 ,1층 (중촌동)",042-223-4315,36.3354145048187,127.412487466705
대구본리점,"대구광역시 달서구 와룡로 130, 1층(감삼동)",053-525-0727,35.844148465582,128.537603230602
가평휴게소춘천방향점,설악면 미사리로540번길 51 가평휴게소 춘천방향,031-584-1425,37.7019403489619,127.546805136522
가평휴게소서울방향점,설악면 미사리로 544 가평휴게소 서울방향,031-584-1425,37.7016978925313,127.543474220155
김포사우역점(25.04.폐점),"사우중로 78, 108호, 109호(사우동, 밀레니엄프라자)",031-988-3090,37.6213380946341,126.72090709137
엔터식스강남점,"서울특별시 서초구 신반포로 176, 고속터미널역 지하1층 25호, 엔터식스강남점",-,37.5039351769908,127.002413006799
양주옥정점,경기도 양주시 옥정로 196,031-928-5280,37.8189407332847,127.0921494186
부산구서점,"부산광역시 금정구 중앙대로1841번길 24, 2층",051-517-6777,35.2499415346867,129.090596231215
SRT수서역점,"서울시 강남구 밤고개로 99(수서역사), 지하2층",070-4110-6888,37.4854023249278,127.104582100484
평택로데오점,경기도 평택시 평택2로 7,031-654-7789,36.9925655433316,127.087419677478
화순광덕점,"전라남도 화순군 화순읍 중앙로 94, 1층(동원빌딩)",061-927-3091,35.0602684108065,126.991625410246
수원인계점,경기도 수원시 팔달구 권광로 181,031-221-4411,37.2637484872618,127.032221016662
대구황금점,"대구광역시 수성구 청수로 176, 1층(지산동)",053-767-6336,35.8387953590978,128.62736002754
춘천명동점,"강원도 춘천시 중앙로67번길 3, 1층(중앙로2가)",033-251-3350,37.8791178328974,127.726815993163
롯데영등포점,서울 영등포구 경인로 846 롯데백화점 지하1층,02-2164-5083,37.5156680341198,126.907665995469
대전관평점,"대전시 유성구 테크노4로 115, 1층 103호(관평동)",042-935-9777,36.424418294255,127.389169509061
롯데구리점,"경기도 구리시 경춘로261, 지하1층 (인창동, 롯데백화점 구리점)",031-550-7961,37.6027360022071,127.143796142875
대학로마로니에점,"종로구 대학로 10길 20 (동숭동, 1층)",02-742-7756,37.5816126736427,127.003248758937
AK&수원점,경기도 수원시 팔달구 덕영대로 924 AK프라자 AK& 2층,031-240-1972,37.2655920786365,127.000179930083
안산중앙역사점,"경기도 안산시 단원구 중앙대로 918, 1층(고잔동, 중앙역)",031-482-3380,37.3160120851693,126.838496502051
광주동명점,광주광역시 동구 동계천로 145,062-222-3222,35.14898926709,126.925231886989
홈플러스울산점,"울산광역시 중구 번영로 475,1층",052-282-0131,35.5643863982418,129.334860143614
천안역점,충남 천안시 동남구 대흥로 239,-,36.8123208138282,127.146822493854
서산한서대점,충청남도 서산시 해미면 한서1로 36,041-688-7336,36.690559860399,126.580170499868
천안남서울대점,충남 천안시 서북구 성환읍 성진로 65,041-417-7391,36.911984858984,127.142652928259
평택안중점,경기도 평택시 안중읍 안현로서 6길 52,031-682-0745,36.984770620615,126.923536406743
포항이동점,"경상북도 포항시 남구 대이로 112-1, 1층(대잠동)",054-278-1237,36.0252280911602,129.341213196522
잠실학원사거리점,"석촌호수로 138, 101호",02-416-2202,37.5070472826242,127.092262876993
구미상모점,"경상북도 구미시 상사서로 62, 1층(상모동)",054-461-2541,36.0879931513106,128.355522966539
서강대점,"서울특별시 마포구 백범로 35, 1층 102호 (노고산동, 서강대학교)",02-715-8807,37.5514649610226,126.942979960696
부산영도점,부산광역시 영도구 태종로99번길 2,051-944-8804,35.0915300342655,129.041962656424
어린이대공원점,서울시 광진구 광나루로 398,02-462-8830,37.5471807515962,127.073715015798
쌍문역점,"서울특별시 도봉구 도봉로 468, 홍일빌딩 106호(창동)",02-904-5200,37.6473861862855,127.034372618396
롯데시네마구리아울렛점,"경기도 구리시 동구릉로 136번길 47, 롯데아울렛 구리점 6층 (인창동)",000-0000,37.6118620717256,127.140545179713
영종하늘도시점,인천광역시 중구 하늘별빛로75,032-710-7735,37.4897876029491,126.562810254411
김제터미널점,전라북도 김제시 동서로 235,070-7543-3832,35.8031983604622,126.893098348572
포항두호점,"경북 포항시 북구 두호로 25, 아이코아 102, 103호",054-248-1236,36.0597961918799,129.375454897784
울산구영점,울산광역시 울주군 범서읍 구영로 82,052-242-6122,35.5751599673455,129.24084727049
천안신방중앙점,"충남 천안시 동남구 서부대로 227, 1층(신방동)",041-575-7391,36.7886140685975,127.128464399224
김해율하점,"경남 김해시 율하3로 41, 1층",055-333-8830,35.1719579084051,128.814059514846
사가정역점,서울시 중랑구 면목로 313,02-434-7177,37.5800862476498,127.088003265483
천안청수점,충남 천안시 동남구 청당동 548-2 더다움트윈브릿지 빌딩 1층,041-555-5210,36.7830287176433,127.155059522578
인천국제공항6호점,인천 중구 공항로 272 제1여객터미널,032-743-8087,37.458350712273,126.427699293474
경북도청점,호명면 새움3로 36,054-655-4445,36.5765653268437,128.490380045807
천안불당파크점,천안시 서북구 불당동 1489번지 중원프라자,041-552-3357,36.8196436915574,127.109428580838
동탄영천점,"경기도 화성시 동탄순환대로 696, 경서프라자 1층 106호",031-378-9367,37.2069651599725,127.111245426359
현대아울렛송파점,"서울시 송파구 충민로 66,지하1층 (문정동,가든파이브라이프)",02-2673-2070,37.4776148442516,127.124961768886
하남미사점,경기도 하남시 미사강변대로 226번안길15,031-796-0776,37.569171721902,127.184995219843
NC안산고잔점,"경기도 안산시 단원구 광덕대로 194,  NC안산고잔 지하1층",없음,37.3134591033479,126.831015927769
롯데시네마전주점,"전라북도 전주시 완산구 온고을로 2 (서신동, 롯데백화점) 7층",없음,35.8344588976618,127.121908184239
영천시청점,"경상북도 영천시 충효로 75, 1층(문외동)",054-337-0453,35.9733948741829,128.937351048883
구미봉곡점,"경상북도 구미시 봉곡로 100, 1층(봉곡동, 봉곡프라자)",054-444-0401,36.1474602911197,128.310613291511
양평점,경기도 양평군 양평읍 양평시장길 15,031-774-6440,37.4903714489343,127.491756504395
롯데몰동부산점,"부산광역시 기장군 기장읍 기장해안로 147, 1층",없음,35.1923229796397,129.212495349946
대전전민점,"대전시 유성구 유성대로 1734, 1,2층(전민동)",042-864-4338,36.3993855745084,127.401947817024
롯데시네마광교점,"경기도 수원시 영통구 도청로 10, 광교센트럴푸르지오시티 4층",000-0000,37.2866696524735,127.055448351197
충남부여점,충남 부여군 부여읍 사비로 95,041-836-9007,36.2810715914515,126.910301639113
대구테크노폴리스점,"대구광역시 달성군 유가읍 테크노상업로 82, 1층 105, 106호",053-617-6888,35.6935489365837,128.456661221372
광교중앙역점,"경기도 수원시 영통구 도청로 지하 45, 광교중앙역 B2층 2호",031-212-3367,37.2882586215078,127.051898779769
일산백마점,경기도 고양시 일산동구 일산로 235,031-908-4566,37.6569875866628,126.788182437603
천안고속터미널점,충청남도 천안시 동남구 신부동 363-2,없음,36.8193950764849,127.154286199183
충남태안점,"충남 태안군  동백로 317, 1층",041-673-7971,36.7479030209714,126.304969446289
제주일도점,"제주특별차지도 제주시 고마로 101(일도이동), 1층",064-702-3156,,
강릉교동점,"강원도 강릉시 솔올로 5번길 55, 1층 104호(교동)",033-641-0707,37.7639430204794,128.877557180836
목포장미거리점,"전라남도 목포시 비파로 51번길 31-1, 1층",061-281-9393,34.801618203667,126.423673019177
청주봉명점,"충북 청주시 흥덕구 백봉로 221, 1층(봉명동, 덕암빌딩)",043-260-0888,36.6494813047011,127.4601402526
시흥배곧점,경기도 시흥시 서울대학로 278번길34,031-365-5687,37.3682047072201,126.728938399307
롯데아울렛김해점,경상남도 김해시 장유로 469 (신문동),000-0000,35.1850621204763,128.829596369018
부산덕천점,부산광역시 북구 덕천1길 19,051-333-0404,35.2099153992399,129.006616567572
충주성서점,"충북 충주시 성서3길 16(성서동, 103호)",043-856-5580,36.9709147170515,127.932214623269
청주대점,충북 청주시 청원구 상당로 252,043-241-1000,36.6508223117014,127.489167020206
제천중앙점,충북 제천시 풍양로13길 14,043-643-7010,37.1384791462352,128.211577451642
속초중앙점,강원도 속초시 청초호반로 332,033-633-7820,38.2035761575252,128.591661394172
한티역점,서울특별시 강남구 선릉로 314,02-562-3311,37.4978192727985,127.052381926669
군산조촌점,"전북 군산시 궁포1로 24-5, 1층 102호(조촌동)",063-910-2006,35.9766029324079,126.740569977532
천안성정점,충남 천안시 서북구 성정두정로 12,041-566-0701,36.8265771178337,127.141513875988
신사세로수길점,"서울시 강남구 논현로 175길 60, 1층",02-548-8110,37.52437158432,127.024015716277
수원정자점,경기도 수원시 장안구 정자천로173번길 11-17,031-269-9210,37.2951691853169,126.99401261482
부산화명점,"부산광역시 북구 화명대로31, 현호타워 1층 103호",051-365-7750,35.2351996396397,129.011619109568
원마운트점,"경기도 고양시 일산서구 한류월드로 300 원마운트 1199, 1200호",031-961-6707,37.6645540981816,126.754526582068
청주분평점,"충청북도 청주시 서원구 1순환로1107번길 21, 1,2층",043-286-6232,36.6095986089747,127.489721382574
천안두정점,충남 천안시 서북구 두정로 165,041-566-9423,36.8340331571777,127.135237030761
충북증평점,"충북 증평군 증평읍 중앙로 211, 1층",043-838-9008,36.7847338480014,127.581796310496
아산배방점,충남 아산시 배방읍 모산로 124,041-546-0052,36.7743839311658,127.056465614776
이천로데오점,"경기도 이천시 어재연로 37번길 25-1 , 1~2층(창전동)",031-634-0085,37.2802173419288,127.444756319434
안산상록수점,"경기도 안산시 상록구 용신로 383, 1층 102호(본오동, 삼우프라자)",031-415-5559,37.3019327398289,126.864759839384
청주가경점,"충북 청주시 흥덕구 가경로 10, 1층(가경동, 엘리트빌딩)",043-231-5800,36.6170209745222,127.443993126685
분당정자역점,"경기도 성남시 분당구 성남대로 331번길 3-3, 1층",031-8023-9224,37.3653315106286,127.107704982095
서울숲점,성동구 왕십리로94~2 1층,02-497-9777,37.5461228494399,127.044915398925
제주아라점,"제주특별자치도 제주시 중앙로 566, 1층",064-758-0705,33.473051451351,126.545309502475
홍천점,"강원도 홍천군 홍천읍 신장대로 62, 1층 2호",033-433-5642,37.6903169048432,127.883138056262
경주노동점,"경북 경주시 계림로 101, 1층",0502-411-8418,35.8435716325277,129.21332009088
구미형곡점,"경상북도 구미시 신시로 67, 1층(형곡동)",054-454-0404,36.1138784902416,128.338737931473
경성대점,"부산광역시 남구 용소로 9, 2~3층 (대연동, 성신빌딩)",051-611-7730,35.1365571707623,129.100677062772
서면삼정타워점,"부산광역시 부산진구 중앙대로 672, 13층",051-804-1452,35.153006221653,129.059606320437
울산테라스파크점,"울산광역시 동구 방어진순환도로 652, C동 112호",052-201-0708,35.4999595903965,129.428845197832
스타필드시티부천점,경기도 부천시 소사구 옥길동 768 스타필드시티부천점 3층,없음,37.4614946950643,126.813963062169
파주금릉점,"경기도 파주시 금빛로 24-17, 1층 103호(금촌동, 월드프라자)",010-4477-7995,37.7519884792472,126.767633023996
울산달동점,"울산광역시 남구 신정로 22, 1층",052-979-9997,35.53389313256,129.322806729976
구리갈매점,경기 구리시 경춘북로 252 아이파크애비뉴 B동 147,031-529-7531,37.6338125904837,127.118322701737
구의점,서울 광진구 아차산로 471 1층,02-456-3010,37.5404187841405,127.093974084703
서울역점,서울 중구 한강대로 405 지하1층 헌혈의집 옆,02-313-7750,37.5547278494914,126.969526329341
사천벌리점,경남 사천시 주공로 29,055-833-7300,34.9409997924696,128.08638735212
아산호서대점,"충남 아산시 배방읍 호서로 79번길 14 , 1층",041-543-2369,36.7393773781711,127.076415428707
대전보건대점,대전시 동구 가양동 146-18번지,042-300-3002,36.3484426894276,127.451337276088
아산모종점,"충남 아산시 모종동 557-16번지, 우전빌딩 1층",041-543-2514,36.7846587994509,127.014553776059
파주문산점,"경기도 파주시 문산읍 문향로67번길 2, 1층",031-952-9458,37.858143525312,126.785036683259
김천신음점,"경상북도 김천시 시청로 95, 상가동 1층 101호",02-779-7758,36.136666739416,128.116823254363
여주아울렛,"경기 여주시 명품로 370, 9014호",031-8087-2066,37.2380066533883,127.607850674751
부천역점,"경기도 부천시 부천로 1, 지하1층 43호, B-05호",070-4254-8786,37.4840382748897,126.782648899659
대전용문점,"대전시 서구 계룡로 616, 105호",042-537-7335,36.3398204804178,127.390645153057
경남거창점,경상남도 거창군 거창읍 상림리 797-3,070-7622-3889,35.6884323708629,127.905227788116
판교역점,"경기도 성남시 분당구 판교역로 192번길 12, 1층",031-8061-7065,37.3975108493977,127.110735783327
거제고현점,"경상남도 거제시 서문로 72, 1층 101호 (고현동, 태원회관)",055-638-1254,34.8896975230932,128.623675186436
광양중마점,"전라남도 광양시 공영로 75, 1층 (중동)",061-795-0253,34.9360240297822,127.697489671081
NC울산성남점,울산광역시 중구 시계탑거리 20,없음,35.554404974988,129.321435712026
아산순천향대점,충남 아산시 신창면 읍내리 457-15,041-541-6745,36.7740523302735,126.933445058726
조치원점,세종시 조치원읍 조치원1길 6,044-864-3554,36.6014247709491,127.297507999612
청주오창점,"충북 청주시 청원구 오창읍 오창대로 315, 108호",043-215-3366,36.7114926740583,127.427764388754
이대서울병원점,"서울특별시 강서구 공항대로 260, 지하1층 (마곡동, 이화의대부속서울병원)",02-6951-2022,37.5572628621214,126.836266829117
부평삼산점,"인천시 부평구 길주로 635, 1층",032-504-7531,37.5072793073224,126.73321368945
전주만성지구점,"전라북도 전주시 덕진구 만성중앙로 51, 1동 105호(만성동, 비젼타워)",063-287-0707,35.8428456956369,127.077384616
롯데시네마인천아시아드점,"인천광역시 서구 봉수대로 806, 인천아시아드주경기장 2번게이트 롯데시네마 옆",070-7403-9111,37.5451869669172,126.665099552628
동탄솔빛나루점,경기도 화성시 동탄솔빛로 47,031-8015-3400,37.193484010255,127.072824847111
천안쌍용점,"충청남도 천안시 서북구 월봉로 79, 1층",041-573-0055,36.7978186724862,127.117570924767
수완장신로점,"광주광역시 광산구 장신로 142, 1층(수완동)",062-710-6617,35.1904287506985,126.825607060443
대구현대시티아울렛점,"대구광역시 동구 동대구로 454, 4층",053-430-2282,35.8707298223024,128.626546626841
군산나운점,전라북도 군산시 하나운로 68(나운동),063-468-0022,35.964505586724,126.702081503481
평촌역점,"경기도 안양시 동안구 관평로 170번길 43, 1층 129호(관양동, 훼미리타운)",031-381-8989,37.3933193690503,126.963172221695
센트럴시티점,서울시 서초구 신반포로 176 센트럴시티 1층,02-6282-5801,37.5039351769908,127.002413006799
청주오송점,"충청북도 청주시 흥덕구 오송읍 오송생명5로 179 103호(만수리, 청송빌딩)",043-239-1300,36.6305370820347,127.330310736436
숙명여대점,"서울특별시 용산구 청파로47길 78, 1층",02-715-3303,37.5451001347015,126.966195151596
경주황성점,"경상북도 경주시 황성로37, 1층",054-777-1133,35.8663068954041,129.215036896186
제주삼화점,제주특별자치도 제주시 건주로 37,064-721-9951,33.5161122510075,126.580984691132
대한상공회의소점,서울시 중구 세종대로 39 대한상공회의소 B1,02-6050-1177,37.5607136539523,126.973775321516
전주서신점,"전라북도 전주시 완산구 당산로 52, 103호(서신동)",063-271-7335,35.8320026609145,127.113860563664
경산사동점,경북 경산시 백자로10길 1 공차 경산 사동점,053-269-0707,35.8107298729718,128.754048855864
전주아중점,"전라북도 전주시 덕진구 무삼지로 84, 1층(인후동1가)",063-244-0071,35.832943443223,127.16296446138
전주중화산점,"전라북도 전주시 완산구 유연로 285, 1층(서신동)",063-247-0707,35.825535571715,127.116695665953
용산아이파크몰점,"서울특별시 용산구 한강대로23길 55 6층 703호(한강로3가, 서관 아이파크몰)",02-2012-0709,37.5297718014452,126.964741503485
광주금호점,광주광역시 서구 금화로 87(금호동),062-372-1001,35.1326074369102,126.858138432925
한양대한양플라자점,"서울특별시 성동구 왕십리로 222, 1층(사근동, 한양대학교 학생복지관)",070-8876-5000,37.5545036393023,127.046611216845
진해석동점,"경상남도 창원시 진해구 진해대로 762, 1층 102호(석동, 진해미래쇼핑센터)",055-552-0708,35.1581646243334,128.698757554273
제주연동점,제주특별자치도 제주시 신광로 35,064-783-7000,33.488940679988,126.490267921524
야탑역사점,"경기도 성남시 분당구 성남대로 지하 903, 맞이방",031-778-6197,37.411051183903,127.12872651224
수원역로데오점,경기도 수원시 팔달구 향교로 16-2,031-256-1027,37.2679855679521,127.003004228489
전남영광점,"전라남도 영광군 영광읍 중앙로 186, 1층",061-351-9599,35.2754395549903,126.511990774153
일산후곡점,"경기도 고양시 일산서구 일산로547, 일신1조합상가 1층 103호",031-923-6880,37.67767152858,126.767101305363
안성휴게소점 부산방향,"경기도 안성시 원곡면 경부고속도로 365, 안성(부산방향)휴게소",031-655-0531,37.0135818447457,127.144715602331
광주동천점,"광주광역시 서구 하남대로 670, 1층(동천동)",062-523-7890,35.1716100254485,126.865753498681
원주단계점,"강원도 원주시 북원로 2235-4, 1층 115호(단계동)",033-900-5554,37.3456570592701,127.932217652826
구미옥계점,"경상북도 구미시 옥계북로 36, 1층 105호(옥계동, 메디칼타워)",054-471-2356,36.1380786292183,128.421528918413
롯데시네마 성남중앙점,경기도 성남시 수정구 산성대로 269번길 11-1 8층,1544-8855,37.4418586215501,127.146336385624
고양터미널점,"경기도 고양시 일산동구 중앙로 1036, 고양종합터미널 터미널동 지하1층(마크트할레) T16",-,37.6431349100152,126.789797411977
파주교하점,"경기도 파주시 청석로 260, 1층 115호(동패동, 트리플메디칼타워)",031-942-3323,37.7251029959277,126.717738448876
경북영주점,경상북도 영주시 대동로 26(가흥동),054-632-0345,36.8148572038887,128.605055721796
군산수송점,"전라북도 군산시 월명로 254, 1층 110호(수송동, 더모나코빌딩)",063-462-7200,35.9667016230694,126.716171953012
원주단구점,"강원도 원주시 서원대로 396, 1층 111호(단구동, 스타월드)",033-766-7556,37.3307257685245,127.948903433255
첨단신용점,"광주시 북구 첨단연신로91번길 20-14, 1층 103호(신용동, 만강빌딩)",062-576-0600,35.2073384085556,126.862422168497
별내로데오점,"경기 남양주시 별내중앙로 50, 1층 일부 (102, 103)호 (별내동, 청운프라자)",070-4090-0303,37.6471015044565,127.123997266055
마산합성점,"경상남도 창원시 마산회원구 3.15대로 744, 1층 102호(합성동, 송하빌딩)",055-297-7707,35.2383085361578,128.582891421812
홈플러스창원점,경상남도 창원시 의창구 창원대로 415 홈플러스 창원점 1층 공차 홈플러스창원점,055-277-2345,35.234036727527,128.643615871937
남원도통점,전라북도 남원시 용성로 200(도통동),063-625-2332,35.4154546322866,127.394984611638
대전우송대점,"대전광역시 동구 백룡로 5, 1,2층",042-623-0070,36.3363431139861,127.44783073256
기장정관점,부산광역시 기장군 정관읍 정관7로 9-4,051-727-2259,35.322068192108,129.176591710924
전주효자점,"전라북도 전주시 완산구 용머리로 50, 1층 101호(효자동1가)",063-221-8008,35.8062408561403,127.115931683843
계명대점,대구 달서구 서당로9길 24,053-588-4674,35.8562918587813,128.49425813877
속초아이파크점,"강원도 속초시 청호로 22, 2동 206호(조양동, 속초청호아이파크상가)",033-631-7820,38.192650350254,128.600306603691
범어로데오점,"대구광역시 수성수 달구벌대로 2513, 1층",053-742-1055,,
동국대점,"서애로1길 11, 지하1층 상가B124호(충무로 5가, 충무로헤센스마트)",02-2272-0919,37.561326262637,126.998598237823
강변테크노마트점,"광나루로56길 85, 테크노마트 9층 21,22,23호",02-452-0403,37.535725176732,127.095692162256
대구이월드점,"대구광역시 달서구 두류공원로 200, 이월드 83타워 4층",-,35.8548554163402,128.564820995296
롯데중동점,"경기도 부천시 길주로 300, 지하 1층(중동, 롯데백화점 중동점)",-,37.5025627553952,126.775275476115
대전노은점,"노은로 158, 지상1층 104호(지족동, 그랜드타운)",0428241188,36.3736784614549,127.318406280185
마포역점,"마포대로 33, 1층 102호 (도화동, 마포 한화 오벨리스크)",02-713-7070,37.5399847863145,126.945447452979
미사강변점,"경기도 하남시 미사강변중앙로198번길 35, 1층 112호",010-7667-6929,37.5650372067509,127.191679255677
대진대점,경기도 포천시 선단동 산 11-1 대진대학교 정보전산원 2층,031-533-8588,37.8702639885019,127.156814647528
청주율량점,충북 청주시 청원구 주성로279번길 8,043-214-7600,36.6706414606326,127.497477341137
천안백석대점,"충남 천안시 동남구 문암로 70, 1층(안서동)",041-551-4567,36.8409517982807,127.181068781476
홍성내포신도시점,"충남 홍성군 홍북읍 청사로174번길 2, 114호,115호",041-635-1246,36.6593870125874,126.678987066939
황학롯데캐슬점,"청계천로 400, 지하2층 (황학동, 롯데캐슬베네치아)",02-2231-3314,37.5708105464699,127.021463886656
청주금천점,"충청북도 청주시 상당구 산성로92번길 5 1층 101호(금천동, 경도빌딩)",043-298-0707,36.6311035712516,127.503678855234
익산영등점,"전북특별자치도 익산시 무왕로13길 11(영등동, 시아)",063-832-9282,35.9593590305073,126.976522428801
대구침산점,대구광역시 북구 침산로 153 105동 C5호,053-353-1740,35.8890265531963,128.589744306502
호남대점,"광주광역시 광산구 어등대로 410, 1층(선암동)",062-942-0909,35.148983568469,126.768372642679
보령대천점,충남 보령시 중앙로 72(대천동),041-936-0503,36.350557995085,126.596289255462
패션아일랜드점,"대전광역시 동구 은어송로 72, 3층 3720,3730호(가오동, 패션아일랜드)",042-282-3913,36.3069678174478,127.457985837078
여의도미원빌딩점,"서울 영등포구 국제금융로 70 1층 (여의도동,미원빌딩)",02-786-3500,37.5214946207638,126.930677790628
신세계아울렛파주점,경기 파주시 탄현면 필승로 200 파주프리미엄 아울렛 1층,-,37.769351232912,126.695385303664
창원상남점,성산구 마디미로 21번길18 1층 107호(상남동 새마음프라자),070-8711-0707,35.2213464793577,128.685967843012
경산하양점,"경상북도 경산시 하양읍 하양로 35, 105동 123호(하양3차 우방타운)",053-214-0090,35.9092602097505,128.813536406471
대구죽곡점,대구 달성군 다사읍 달구벌대로 863 102호 (진광타워),053-585-0369,35.8589507415728,128.464438066267
부천투나빌딩점,"경기도 부천시 부일로 223, 1층 2호(상동, 투나쇼핑센타)",032-227-7321,37.4888728238194,126.755289414352
홍대입구역점,"서울 마포구 양화로 166, 1층",02-333-5588,37.556743503599,126.924166543608
분당푸른마을점,"경기도 성남시 분당구 돌마로356번길 3, 105호(수내동, 그랜드빌딩)",031-711-6194,37.3697248747272,127.12333496297
부산사직점,부산광역시 동래구 사직북로 12 1층,051-505-5353,35.1969500658222,129.060848232536
광주기독병원점,"광주광역시 남구 양림로 37, 광주기독병원 로비1층",062-654-0782,35.1362325078132,126.911503084987
위례중앙타워점,"경기도 성남시 수정구 위례광장로 300, 1층 119호 (창곡동, 위례중앙역 중앙타워)",031-754-2988,37.4734715546921,127.14270025965
김해내동점,경남 김해시 내외중앙로69 1층(내동),055-903-0834,35.236121881609,128.866618898198
대구만촌점,만촌동 1356-5 이마트만촌점 1층 푸드코트,053-753-0369,35.8711635230387,128.636901623627
동대문종합시장점,"서울특별시 종로구 종로 266 B동, 6층 13호 (종로6가, 동대문종합시장)",02-2275-7468,37.5707064933341,127.007328677369
영남대점,"대학로 299 ,107호(조영동)",053-241-8188,35.96663904158,126.695601794985
롯데아울렛이천점,"호법면 프리미엄아울렛로 177-119, 2층(5030)",031-887-4884,37.2427383885008,127.397943217542
김포공항국제선점,서울특별시 강서구 하늘길 38 김포국제공항 국제선 2층,-,37.5713695798026,126.802960133589
첨단엘씨타워점,"첨단중앙로 96, 1층 128호(월계동, 엘씨타워)",062-972-0202,35.2138342256441,126.843465057781
국민대점,"서울특별시 성북구 정릉로 77, 지상1층(정릉동, 국민대학교 3동2호관, 북악관)",-,37.6102919873059,126.998494142731
여수학동점,"전라남도 여수시 무선로 61, 1층",061-681-0300,34.766435932134,127.655818157075
대구범어점,"대구광역시 수성구 동대구로 354, B101호(범어동, 브라운스톤 범어)",053-756-7676,35.861766546387,128.627638059103
롯데부산본점,"부산광역시 부산진구 가야대로 772 , 롯데백화점 부산본점 지하 1층",-,35.156789983664,129.056416218143
인천구월점,"인천시 남동구 예술로 126, 214호 (구월동, 링크126)",032-421-1027,37.4451295490218,126.700886698924
인천서창점,인천광역시 남동구 서창동 687-3,070-8244-0922,37.4248261272326,126.74876869767
안성중앙점,"중앙1길 4, 1층",031-673-7262,37.0077441318117,127.27030315227
춘천석사점,"강원도 춘천시 퇴계농공로 16, 팰리스프라자 1층 107호(석사동)",033-262-6441,37.8518823213123,127.744349217424
노원역점,"서울시 노원구 노해로 494, 104,105호(상계동)",02-939-0700,37.654537708996,127.063033065964
안동옥동점,"경북 안동시 경북대로 381, 1층 102호",054-842-0424,36.5636553458561,128.701924708747
전주대점,"전북 전주시 완산구 백마산길 14, 1층",063-905-5766,35.8178469339291,127.091496250347
롯데울산점,"울산광역시 남구 삼산로 288, 롯데백화점 울산점 B1층",-,35.5386226526119,129.338866778005
마곡나루점,"서울특별시 강서구 마곡중앙로 165, 1층 110호 (마곡동, 안강프라이빗타워)",02-2659-5999,37.5685808655445,126.827697450113
대구백화점플라자점,"대구광역시 중구 명덕로 333, B1층 (대백프라자)",053-427-0369,35.8557170359818,128.606361603087
스타필드고양점,경기도 고양시 덕양구 동산동  370 스타필드 고양점 3층,-,37.6470540753526,126.894691272743
고대안암병원점,"서울특별시 성북구 안암로 145 지상3층 (안암동5가, 고려대학교부속병원)",02-923-0703,37.5887034223667,127.031698331241
대구광장점,대구 서구 달구벌대로 1719 1층(내당동),053-525-0369,35.8566444804081,128.553245326415
나주빛가람점,"전라남도 나주시 상야1길 7, 1층 147호 (빛가람동, 예가람타워)",061-336-0009,35.0226404638386,126.785873020836
대구시지점,대구 수성구 달구벌대로 3204 1층(신매동),053-792-0801,35.8399418294448,128.706916496169
제주한라대점,"제주특별자치도 제주시 한라대학로 31,1층(노형동)",064-747-7030,33.4786190824184,126.4750225374
진주경상대점,경상남도 진주시 진주대로 536,-,35.1542213969973,128.10702310355
롯데시네마부산본점,"부산광역시 부산진구 가야대로 772 (부전동, 롯데백화점 10층 공차)",051-810-3973,35.156789983664,129.056416218143
김해아이스퀘어점,김해대로 2342 부원동 아이스퀘어 K303호,-,35.2257165287958,128.883240412144
정읍상동점,전라북도 정읍시 충정로 61-2(상동),063-536-2831,35.5592981127686,126.869109770943
탑마트서진주점,"경상남도 진주시 새평거로 136,1층 (탑마트)",-,35.1703727338615,128.061903855215
김포장기점,"경기도 김포시 김포한강1로 51번길 28, 1동 101호(장기동, 레드클로버)",031-985-5786,37.6441443537542,126.667048031405
대구칠곡점,"학정로 439 1층 111호(동천동, 칠곡메가타운)",-,35.9438791871523,128.563338860613
익산동산점,"익산시 서동로 132, 1층(동산동)",063-853-3330,35.9352060493756,126.965758427809
광운대점,"서울특별시 노원구 광운로20, 지하1층내 복지매장(월계동, 광운대학교80주년기념관)",02-943-8523,37.619379129478,127.058263354527
양산중부점,경상남도 양산역6길 24 1층 104호(중부동),055-913-0880,35.3369259238649,129.02848700134
서초마제스타시티점,"서울특별시 서초구 서초대로 38길 12, 1층 120호(서초동, 마제스타시티, 힐스테이트 서리풀)",02-588-7775,37.4904950346372,127.005381592272
전주송천점,"전라북도 전주시 덕진구 천마산로 54, 1층 104호(송천동1가)",063-252-0405,35.8641131587637,127.12774809448
대전관저점,대전광역시 서구 구봉로 123,042-545-6204,36.2966841998836,127.336649464206
광주터미널점,"경기도 광주시 광주대로 30,1층 7-1호 (경안동,광주터미널 이마트)",031-799-7779,37.4096365869962,127.261220653134
대구삼성창조캠퍼스점,"대구광역시 북구 호암로 51, B동 1층 7-1호",053-957-6789,35.8836868233949,128.595975391473
홍대서교점,서울특별시 마포구 어울마당로 49(서교동),02-322-5371,37.5495744865944,126.920665482944
세종소담점,"세종특별자치시 한누리대로 2016 1층 110호 (소담동, 타임빌딩)",044-863-0797,36.4850167103305,127.299629679817
용인역북점,"처인구 명지로16번길 9-23, 1층 101, 102호(역북동, 디엠씨타워)",031-321-0446,,
세종새롬점,"새롬중앙로 33, 새뜸프라자 1층 101호(새롬동)",-,36.4840497251735,127.251836083244
인천트리플스트리트점,"인천광역시 연수구 송도과학로 16번길 33-2, B동 1층",032-310-9414,37.3804450761613,126.660231759735
국악고점,서울특별시 강남구 개포로22길 46,-,37.4762126909641,127.049572379797
합정교보문고점,서울특별시 마포구 합정동 473 마포한강 2차 푸르지오 지하1층 B137호,02-332-3500,37.5510531812588,126.911865545526
인천주안점,인천광역시 미추홀구 주안동 136-1,-,37.4636101493816,126.681738432392
하월곡점,"서울특별시 성북구 종암로 167 (하월곡동, 동일하이빌뉴시티) 1층",02-3292-0010,37.6050371568783,127.030928150119
경북예고점,대구광역시 남구 대명동 1802-15,070-7677-1230,35.85555416712,128.58903267667
공주휴게소 대전방향점,충청남도 공주시 송선동 320-3,없음,36.4970422950259,127.166798882409
세종에비뉴힐점,세종특별자치시 갈매로 353,044-998-8293,36.495606258638,127.262700936321
메가마트울산점,"울산광역시 북구 진장17길 10 (신선도원몰, 메가마트2층)",-,35.5619158810741,129.356439885394
고대안암점,"서울특별시 성북구 인촌로24길 17, 1층(안암동5가)",02-953-5086,,
경기대후문점,경기도 수원시 영통구 이의동 1257-3,031-308-8020,37.2999191042383,127.043457740311
인천신포점,인천광역시 중구 신포로 35-1 (관동3가),032-763-9696,37.4720246551934,126.625490970296
가천대점,경기도 성남시 수정구 성남대로 1330 1층 공차,031-602-0088,37.4483605061686,127.1271073288
부산광복점,부산광역시 중구 광복로 80 (광복동1가),051-244-7758,35.0983821563382,129.033523549683
NC미금점,"경기도 성남시 분당구 미금일로 154번길 20 (구미동, 이천일아울렛 지하2층)",031-786-2620,37.3490834079801,127.107466650924
익산모현점,전북 익산시 배산로139 1층 102호,063-851-7770,35.9502541585433,126.940168444261
경북대점,대구광역시 북구 산격동 1400-3,053-959-0303,35.8918946972201,128.60775461013
안목항점,강원도 강릉시 창해로 14번길 32,033-652-1041,37.7718157031873,128.9480226527
고속터미널점,"서울특별시 서초구 신반포로 194, 1층 18호(반포동,부속상가)",02-535-9524,37.5064357442307,127.006834366246
처인구청점,"경기도 용인시 처인구 금령로 86,104호",031-321-8885,37.2350859784862,127.205815188674
대구월배점,대구광역시 달서구 대천동 555,053-636-6898,35.8170204917568,128.523708247192
롯데시네마파주운정점,경기도 파주시 목동동 927,031-942-1044,37.729526175411,126.736765309998
상무메이루즈점,광주광역시 서구 치평동 1249,062-383-7241,35.1510079843827,126.850837427759
롯데시네마은평점,서울특별시 은평구 진관동 79-15 롯데몰은평점 내 5층 롯데시네마,02-6975-5630,37.6421169,126.9354305
광양LF몰점,전라남도 광양시 광양읍 덕례리 707,061-815-4925,34.9638179685248,127.566857015539
현대판교점,경기도 성남시 분당구 백현동 541,-,37.3926536571581,127.112037135835
인천송도점,인천광역시 연수구 송도동 3-23,032-833-9883,37.3914174555537,126.651085283358
향남신도시점,경기도 화성시 향남읍 상신하길로298번길 7-23 1층,031-8059-0414,37.1149881499838,126.912825707122
부평CGV점,인천광역시 부평구 청천동 386 아이즈빌아울렛 3층,032-515-1027,37.5218444702691,126.703489197669
현대송도점,인천광역시 연수구 송도동 168-1 현대프리미엄아울렛 송도점 지하1층,032-727-2819,37.3825651279856,126.658713006099
현대아울렛동대문점,서울특별시 중구 을지로6가 17-2 현대시티아울렛 동대문점 지하 2층,02-2283-2250,37.5686434582653,127.007732349005
전주터미널점,전라북도 전주시 금암동 459-10,063-272-0455,35.8339718877549,127.13317532302
회룡역점,경기도 의정부시 호원동 51-1,031-836-9604,37.7248224299307,127.046660009307
신세계센텀시티점,부산광역시 해운대구 우동 1495,051-745-2665,35.1689229983992,129.129631137391
NC송파점,서울특별시 송파구 문정동 634 가든파이브라이트 2016호,02-2157-3972,37.4776486857765,127.124996194218
서울타워점,서울특별시 용산구 용산동2가 산1-3 서울타워플라자 107호,02-773-7758,37.5489431139548,126.989404159753
NC부천점,경기도 부천시 원미구 상동 539-1 NC백화점 5층,-,37.5039762134316,126.756612765121
이대익스프레스점,서울시 서대문구 이화여대길 48(대현동),070-4208-0933,37.5590554285083,126.945880269074
경산중산점,경상북도 경산시 중산동 623 이마트 경산점 1층,053-812-7942,35.8346240436804,128.720180945967
성남태평점,경기도 성남시 수정구 태평동 7336 이마트 성남점 2층,031-759-4696,37.44427268172,127.141398900207
동탄타임테라스점,경기도 화성시 반송동 96,-,37.2049761298774,127.068884312042
롯데수원점,경기도 수원시 권선구 서둔동 296-77 롯데백화점 수원점 지하 1층,031-8066-0869,37.2743991785223,126.981283287789
롯데마트대구율하점,"대구광역시 동구 안심로 80, 롯데마트대구율하점 1층",053-607-2752,35.8684630267062,128.693330946688
홍대점,서울특별시 마포구 서교동 345-13,02–3144–0743,37.554828170691,126.923202105388
명동점,서울특별시 중구 명동1가 46-3,02-318-0760,37.5643452092934,126.984467146628
현대신촌점,서울특별시 서대문구 창천동 30-33 현대백화점 지하 1층,없음,37.5561573212497,126.935883744842
현대목동점,서울특별시 양천구 목동 916 현대백화점 지하 2층,없음,37.5268543255661,126.875034766819
현대충청점,충청북도 청주시 흥덕구 복대동 3380 현대백화점충청점 지하 1층,043-909-4072,36.6447593785557,127.426260041731
목포남악점,전라남도 무안군 삼향읍 남악리 2167,061-283-9738,34.8124841945468,126.461742037792
강남역점,서울특별시 강남구 역삼동 858 강남역지하쇼핑센터 E-37,02-569-7344,37.4970572543978,127.028180714381
김포롯데몰점,서울특별시 강서구 방화동 886 김포롯데몰  MF(지하1층),02-6116-5728,37.5668093694949,126.802955054368
롯데아울렛파주점,경기도 파주시 문발동 645,031-960-2440,37.717896578691,126.693797840306
일산식사점,경기도 고양시 일산동구 식사동 1531,031-964-9897,37.6779273295693,126.812166357346
보라매점,"서울특별시 동작구 신대방동 395-73 캐릭터그린빌 제106호, 105호",010-2531-4130,37.4918983900228,126.925036809648
부평역점,"인천시 부평구 광장로 16, 지하1층 39호,56호(부평동, 부평민자역사)",032-519-3954,37.4895676659869,126.72335064425
신촌연세로점,서울특별시 서대문구 창천동 33-30,02-3143-0404,37.5580443791408,126.936736050455
신세계의정부점,경기도 의정부시 의정부동 168-54 신세계백화점 의정부점 3층,031-8082-0236,37.7373291941264,127.046356098041
분당서울대병원점,경기도 성남시 분당구 구미동 300 분당서울대병원 1동 1층 공차,031-714-7758,37.349786822389,127.124231209576
롯데월드어드벤처점,서울특별시 송파구 잠실동 40-1 롯데월드어드벤쳐 2층,02-2143-1213,37.5112866236555,127.097939034042
원주혁신도시점,강원도 원주시 반곡동 1930-8 1층,033-748-0040,37.3278735951226,127.989980412291
수원영통점,경기도 수원시 영통구 영통동 1011-6,031-205-6208,37.2527724386551,127.075984464283
롯데시네마청주용암점,충청북도 청주시 상당구 용암동 1703,070-5142-2543,36.6070073367099,127.503149150794
판교테크노밸리점,경기도 성남시 분당구 삼평동 682 유스페이스2 제1층 116호,031-628-6050,37.4020687071228,127.106670696623
여의도점,서울특별시 영등포구 여의도동 24-4,02-761-6697,37.5240799620535,126.927386940698
상암DMC점,서울특별시 마포구 상암동 1605번지 누리꿈스퀘어 1층 102호,02-2132-8118,37.5794064097977,126.890419224603
AK수원점,경기도 수원시 팔달구 매산로 1가 18 AK플라자 지하 1층,031-240-0837,37.2661226120945,126.999816122792
현대울산점,울산광역시 남구 삼산동 1521-1 현대백화점 지하 1층,없음,35.5396250906147,129.335790155899
부천상동점,경기도 부천시 원미구 상동 535-5 드림모아 제1층 106호 (세이브존 1층),032-322-4865,37.5064468634277,126.753834382403
시화로데오지점,경기도 시흥시 정왕동 1738-5 1층,031-431-5037,37.3443673366283,126.737316162857
중앙대점,서울특별시 동작구 흑석동 190-25,없음,37.5072526753812,126.958912942065
김포현대아울렛점,경기도 김포시 고촌읍 전호리 654,031-8048-2515,37.5993831717372,126.785569327814
한남대점,대전광역시 대덕구 오정동 223-267,042-335-0709,36.3515656602827,127.425965103193
전북대점,전라북도 전주시 덕진구 금암동 664-42,063-255-1205,35.8436001950478,127.127868610898
노량진학원가점,서울특별시 동작구 노량진동 92-2,02-822-4309,37.512670437465,126.943670946862
김포구래점,경기도 김포시 구래동 6880-9 이마트 김포한강점,031-996-6439,37.644436737352,126.628229553273
목포평화광장점,전라남도 목포시 상동 1132-4 1층,061-287-4745,34.7986385076688,126.431059935668
NC불광점,서울특별시 은평구 대조동 240 NC백화점 불광점 지하1층,없음,37.6097135228284,126.928942235642
롯데시네마진주점,"경상남도 진주시 충무공동 35, 롯데몰진주점 5층",-,35.1801067209963,128.139926771019
고덕역점,서울특별시 강동구 명일동 48-3 우진빌딩102호103호,02-426-2661,37.5525202522742,127.15349584191
평내호평점,경기도 남양주시 호평동 640 메인시네마타워 1층 102호,031-591-2008,37.655074547272,127.24407653829
용산아스테리움점,서울특별시 용산구 한강로2가 419 아스테리움 지하1층,02-3785-2606,37.5276308275423,126.968859586066
고대구로병원점,서울특별시 구로구 구로동 80 지하1층 17호 공차,02-869-8020,37.4921301251115,126.884741447947
롯데월드매직아일랜드점,서울특별시 송파구 잠실동 40-1 롯데월드 매직아일랜드,-,37.5112866236555,127.097939034042
진주대안점,경상남도 진주시 대안동 12-5 2층 201호,055-741-9373,35.1935433056712,128.083600790323
홈플러스세종점,세종특별자치시 어진동 307-7 홈플러스,070-8846-5999,36.5001859,127.2627276
잠실지하상가점,서울시 송파구 올림픽로 265 잠실역 지하쇼핑센터 B-14,02-425-2000,37.513859279255,127.101857941447
현대동구점,울산광역시 동구 서부동 105 현대백화점 지하1층,없음,35.54403,129.42094
서판교점,"경기도 성남시 분당구 운중로 128, 106호",031-724-0212,37.3913125957774,127.077357791714
이수점,서울특별시 동작구 사당동 132-23,02-532-6744,37.4876511589813,126.981180801514
통영무전점,경상남도 통영시 무전동 1032-13,055-648-1339,34.8579907025206,128.426407633885
평촌학원가점,경기도 안양시 동안구 평촌동 900-9 신세기플라자 1층 103호,031-383-9939,37.3839326279654,126.960466399546
이시아폴리스점,"대구광역시 동구 팔공로 51길 21-1, A-01호(봉무동)",053-983-1711,35.9223234047733,128.638452591256
공주대점,충청남도 공주시 신관동 265-33,없음,36.4738668778429,127.139430477618
성남모란점,경기도 성남시 중원구 성남동 3244,031-759-6988,37.4330975733552,127.131325374907
타임스트림점,서울특별시 관악구 신림동 1641-2 포도몰 지하 1층,02-881-8098,37.483846985896,126.930186157519
용인동백점,경기도 용인시 기흥구 중동 832-1 동백훼미리프라자 122호,031-286-6208,37.2775250051726,127.152776584007
잠실엘스점,서울특별시 송파구 잠실동 19-9 잠실파앤애플상가,02-418-0789,37.5121056958967,127.08418788676
동대구복합환승센터점,"대구광역시 동구 동부로149, 동대구복합환승센터 4층",053-753-9631,35.8779406718693,128.629190024219
신세계대구점,"대구광역시 동구 동부로149, 신세계백화점 대구점 8층",053-661-6898,35.8779406718693,128.629190024219
건대로데오점,서울특별시 광진구 자양동 5-71,02-469-6965,37.5398395007453,127.068630306436
하남풍산점,경기도 하남시 덕풍동 741,031-792-0640,37.5524737314971,127.208679414501
미아사거리점,서울특별시 강북구 미아동 1364,02-6312-6213,37.6137013585704,127.03051402938
강릉CGV점,강원도 강릉시 옥천동 189 씨네몰 6층,033-646-8687,37.7557017886467,128.89867822579
NC일산점,경기도 고양시 일산동구 마두동 797-2 뉴코아 아울렛 일산점 2층,031-900-5240,37.6548251338417,126.777078200946
홈플러스영통점,경기도 수원시 영통구 영통동 994-2,070-8880-8642,37.2517772337626,127.072539718744
신세계본점,서울특별시 중구 충무로1가 52-5,02-310-5320,37.5609226495431,126.981138732453
홈플러스김해점,경상남도 김해시 내동 1132-1,055-313-5755,35.2407641681835,128.868551166548
충남대점,"대전광역시 유성구 궁동로18번길 8, 1층(궁동)",042-826-0045,36.3626853665446,127.347800878623
롯데청량리점,서울특별시 동대문구 전농동 591-53 롯데백화점 청량리점 지하 2층,02-3707-1035,37.5809392592331,127.046949893617
양재역점,서울특별시 서초구 양재동 11-17 한솔로이젠트 102호,02-6298-1012,37.4844573026826,127.036686699024
원주법원점,강원도 원주시 무실동 1857-2,033-746-9870,37.3337740223418,127.930997709229
순천호수공원점,전라남도 순천시 왕지동 868-6,061-722-2253,34.9681605716122,127.522866534793
수지구청점,경기도 용인시 수지구 풍덕천동 1080-19번지 평온프라자 112호,031-263-0712,37.3221734578359,127.095865587487
화정역점,경기도 고양시 덕양구 화정동 980,031-966-4635,37.6325618799959,126.831899380288
홈플러스아시아드점,부산광역시 연제구 거제동 1208 홈플러스,070-4133-4980,35.1909050227428,129.061419257391
정동점,서울특별시 중구 충정로1가 58-3 청양빌딩 1층,02-722-9934,37.5674846042328,126.968806894402
신도림테크노마트점,서울특별시 구로구 구로동 3-25 B2 이마트,02-2111-1110,37.5069739187173,126.890319120085
송탄점,경기도 평택시 서정동 818-35,031-663-5583,37.0672318635429,127.060782331959
수원화성행궁점,경기도 수원시 팔달구 남창동 27-3,031-247-0815,37.2804441663159,127.014912098004
대전문화점,대전광역시 중구 문화동 1-63번지,042-300-7070,36.3202627413033,127.40984108608
마산양덕점,경상남도 창원시 마산회원구 양덕동 60-3,055-295-1515,35.2299477679354,128.584484832503
충장우체국점,광주광역시 동구 황금동 45-1 2층,062-236-2298,35.1471753268357,126.916737033352
경남대점,경상남도 창원시 마산합포구 해운동 13-21,055-244-0040,35.1800635837905,128.558079945985
홈플러스간석점,인천광역시 남동구 간석4동 616-4 1층,032-875-4393,37.4667504,126.6973085
광주수완점,광주광역시 광산구 장덕동 1657,062-962-6607,35.1904986320558,126.817668727063
NC부산해운대점,부산광역시 해운대구 좌동 1467-4번지 NC해운대점 1층,없음,35.1705294150362,129.177047059247
순천중앙점,전라남도 순천시 중앙동 61-52,061-753-2253,34.9556693521694,127.484262953905
일산탄현점,경기도 고양시 일산서구 탄현동 1640 두산위브더제니스 스퀘어 215호,070-4247-9884,37.6940201278564,126.762958059199
동대문디자인플라자점,서울특별시 중구 을지로7가 2-1번지 디자인플라자점,02-2153-0710,37.56629,127.00897
울산업스퀘어점,울산광역시 남구 삼산동 1569-12 업스퀘어 5층 21호,없음,35.5413326594453,129.339016053321
세종나성점,세종특별자치시 한누리대로 193 1층 111호~112호,070-7543-1309,36.4820796620759,127.260502652606
리빙파워센터인천논현점,"인천광역시 남동구 청능대로 596, NC아울렛인천논현점 1층",032-454-8255,37.4006213554988,126.725648527084
의정부역점,경기도 의정부시 의정부동 175-1 2.3층,031-821-3370,37.738893877784,127.048884217907
제주시청점,제주특별자치도 제주시 이도2동 1185-4,064-751-9988,33.4980779858399,126.53021817082
구로디지털2호점,서울특별시 구로구 디지털로 288 대륭포스트타워1차 지하1층 B111,02-858-1778,37.4835695693308,126.895502765348
여의도역사점,서울특별시 영등포구 여의도동 3 역사 내 지하 1층,없음,37.5230947167692,126.926514122343
코엑스점,서울특별시 강남구 삼성동 159-1,02-6002-3090,37.5103979374412,127.061193361211
NC동수원점,경기도 수원시 팔달구 인계동 1114-1 지하1층,없음,37.2663010921239,127.034312514432
인천인하대점,인천광역시 미추홀구 용현동 198-19,032-872-0801,37.4517166914004,126.655375882508
의정부민락지구점,경기도 의정부시 민락동 804-8 110호,031-852-8714,37.7445795498266,127.095824608464
거제디큐브점,경상남도 거제시 장평동 1211,055-680-0009,34.8910658569629,128.616588377147
고투몰점,서울특별시 서초구 반포동 19-4 고속버스터미널 지하쇼핑몰 G-31호,070-7756-0629,37.5050455005061,127.006705761057
아차산역점,서울특별시 광진구 구의동 54-1 파크타운 103호,02-6015-4516,37.5444896,127.0874678
대전복합터미널점,대전광역시 동구 용전동 63-3 1층,042-673-0707,36.3505040933727,127.436622306744
여수해양공원점,전라남도 여수시 중앙동 243,061-682-0098,34.7375027922015,127.741377536983
둔산타임월드점,대전광역시 서구 둔산동 986번지,042-484-0807,36.3523120479577,127.377261930112
일산주엽역점,경기도 고양시 일산서구 주엽동 109번지 화성프라자 110호,031-916-0037,37.6700473156475,126.760507374229
교보타워점,"서울특별시 서초구 서초동 1303-16 아이파크에비뉴 L1층 103, 104호",02-536-7760,37.5027482294538,127.023911754129
홈플러스인하점,인천광역시 미추홀구 용현동 648 홈플러스 인하점 1층,032-876-9890,37.4508937,126.6492456
NC경산점,경상북도 경산시 중방동 332-13 1층,053-718-3710,35.8218414979497,128.731437795223
목동역점,서울특별시 양천구 신정동 1006-2번지,02-2608-8308,37.5239798116688,126.864609369101
수원매탄점,경기도 수원시 영통구 매탄동 1265-2,031-215-0211,37.2594817727516,127.04448479428
NC전주점,전라북도 전주시 완산구 고사동 96-1 NC백화점 전주객사점 A동 지하1층,063-710-5150,35.8195650503295,127.145039773853
명동역점,서울특별시 중구 충무로1가 24-31,02-754-7770,37.5609526061996,126.983864366222
산본점,경기도 군포시 산본동 1131-2 청운빌딩,031-391-0505,37.3604022603335,126.932262859011
안양1번가점,경기도 안양시 만안구 안양동 674-100번지,031-443-5483,37.3994338390918,126.923709372921
광주봉선점,광주광역시 남구 봉선동 618,062-651-0107,35.1241572736642,126.907604248958
청주산남점,충청북도 청주시 서원구 산남동 838번지,070-4132-9927,36.6109721356909,127.468536291119
홈플러스상봉점,서울특별시 중랑구 상봉동 172 홈플러스 상봉점 1층,02-435-4351,37.5992354426837,127.091260957504
강남성심병원점,서울특별시 영등포구 신길로 1 강남성심병원 본관 1층,02-829-5845,37.4932489151953,126.90877588456
수서역점,서울특별시 강남구 수서동 713번지 수서현대벤쳐빌 지하1층 141호,02-459-0777,37.4880167345764,127.101848510057
왕십리역사점,서울특별시 성동구 행당동 168-1 왕십리민자역사 내 2층 A-09,02-2297-3004,37.5637836614008,127.037996868465
과천별양점,경기도 과천시 별양동 1-4,02-504-8809,37.428543267288,126.993561944123
전남대점,광주광역시 북구 우치로 106-1,062-262-7758,35.1769661514867,126.912527890254
신세계김해점,경상남도 김해시 외동 1264 신세계백화점 김해점 3층,055-272-1890,35.2291315540033,128.872148827567
강원대점,강원도 춘천시 효자동 617-14 1층,033-263-0707,37.8736668601897,127.742063839718
서울과기대점,서울특별시 노원구 공릉동 438-2 1층,02-977-5856,37.6293964159781,127.076521447735
천안터미널점,충남 천안시 동남구 만남로 43 지하 1층 시외버스터미널,041-640-5795,36.8193302097389,127.15784651678
마리오아울렛점,서울특별시 금천구 가산동 60-22 마리오아울렛 1관 3층,02-2067-3762,37.4781889358971,126.887091152392
충북대점,충청북도 청주시 서원구 사창동 461,043-271-0707,36.6322015476182,127.457023160539
대전시청법원점,대전광역시 서구 둔산동 1458 105~107호,042-489-0036,36.3515820679867,127.388963756764
인천스퀘어원점,인천광역시 연수구 동춘동 926 스퀘어원 3층,032-456-4393,37.4059408363388,126.683613830349
서현점,"경기도 성남시 분당구 황새울로335번길5, 102호(서현동)",031-696-1226,37.3860492558363,127.121697508944
타임스퀘어점,서울특별시 영등포구 영등포동4가 442 타임스퀘어 2층,02-2638-2745,37.5170754549268,126.903340879819
구리수택점,경기도 구리시 수택동 849-11,031-564-0707,37.5913640235637,127.139395181559
압구정역점,서울특별시 강남구 신사동 620번지,070-4104-8073,37.5273907587182,127.030957155124
송파파크하비오점,서울특별시 송파구 문정동 618,02-448-3655,37.4806047633012,127.12366621502
홍대창전점,서울특별시 마포구 서강로9길 60 (창전동),02-336-8075,37.5546396238222,126.930526684887
청라엑슬루타워점,인천 서구 중봉대로586번길 22,032-563-7941,37.530804303959,126.651349449913
대림점,서울특별시 영등포구 대림동 717 쌍용플래티넘-S 1층 104호,02-831-7536,37.4952957246824,126.898075565712
하남스타필드점,경기도 하남시 신장동 616 스타필드 하남 1층,031-8072-8286,37.5455517487259,127.223680396222
대학로점,"서울특별시 종로구 명륜2가 24-4 2,3층",02-742-8892,37.5838089741666,127.001177562531
회기역점,서울특별시 동대문구 휘경동 319-13번지 103호,02-957-5725,37.589759429633,127.056812826462
파르나스몰,서울특별시 강남구 삼성동 159-8 B1,02-2051-3453,37.509047757274,127.060892874689
안양범계역점,경기도 안양시 동안구 호계동 1042 에메랄드빌딩 1층 110호,031-381-2030,37.3914654310788,126.953474334658
롯데미아점,"서울특별시 강북구 도봉로 62, 지하2층 1",-,37.6145929759749,127.030517678336
영등포구청점,서울특별시 영등포구 당산동3가 214,02-2633-0789,37.5266992531066,126.897062765992
김포풍무점,경기도 김포시 풍무동 803 오성프라자 106호,-,37.6024225724156,126.721998667112
웨스턴돔점,경기도 고양시 일산동구 장항동 862,031-907-0404,37.6569565838577,126.771196388479
NC평촌범계점,경기도 안양시 동안구 호계동 1039-3 뉴코아아울렛 지하2층,031-380-1342,37.3891820400727,126.951191879296
김천혁신도시점,경상북도 김천시 율곡동 772 한신휴플러스 101호,-,36.1202806460275,128.185918223806
월계점,서울특별시 노원구 월계3동 333-1,02-973-6885,37.6273413951428,127.061858351227
대구동성로점,대구광역시 중구 동성로2가 156-3,053-286-2998,35.8689449887035,128.595938727319
가산점,서울특별시 금천구 가산동 459-11 제이플라츠 209호,02-2028-7060,37.4819822392891,126.881535776774
장안구청점,경기도 수원시 장안구 조원동 750-32,-,37.3023074469269,127.010257952938
조선대점,광주광역시 동구 서석동 375 장미원휴게소 2층,062-222-7241,35.1423617186111,126.934216459728
논산시청점,"충남 논산시 시민로 238, 101호",041-733-8877,36.1881325698102,127.096752204304
역삼점,서울특별시 강남구 역삼동 644-17,02-6326-4040,37.5010218675634,127.034602276275
